CAI Type,Entity name,Entity number,CMS number,FRN,Location ID,Street address,City,State or territory,Zip code,Longitude,Latitude,Explanation,Broadband Need,Broadband Availability
H,STEVENS COUNTY HOSPITAL,,1417078551,,1387116952,200 6TH STREET,HUGOTON,KS,67951,-101.3459953,37.17765033,,1000,1000
S,TOPEKA WEST HIGH,77081,,2399033091,1387107115,2001 SW Fairlawn Rd,Topeka,KS,66604,-95.74746756,39.0313377,,1000,1000
S,WASHBURN INSTITUTE OF TECHNOLOGY,,,2399033091,1387107083,5724 SW Huntoon,Topeka,KS,66604,-95.74999071,39.04659122,,1000,1000
G,KANSAS PUBLIC EMPLOYEES RETIREMENT SYSTEM,,,,1387106998,611 S Kansas Ave,Topeka,KS,66603,-95.67468922,39.05125731,,1000,
S,LANSING INTERMEDIATE SCHOOL,76562,,2399048843,1387103118,200 E Mary St,Lansing,KS,66043,-94.89625644,39.244347,,1000,1000
S,LANSING MIDDLE 6-8,76563,,2399048843,1387103118,200 E Mary St,Lansing,KS,66043,-94.89625644,39.244347,,1000,1000
S,LANSING HIGH 9-12,76564,,2399048843,1387103118,200 East Mary,Lansing,KS,66043,-94.89625644,39.244347,,1000,1000
S,LANSING ELEMENTARY SCHOOL,76565,,2399048843,1387103118,200 East Mary,Lansing,KS,66043,-94.89625644,39.244347,,1000,1000
L,F. LEE DOCTOR LIBRARY,,,,1387098652,222 Main Street,Agra,KS,67621,-99.11869568,39.7613167,,1000,1000
S,COTTONWOOD ELEM,230616,,2399029104,1387090858,1115 E 303rd Street,Paola,KS,66071,-94.86231705,38.57625629,,1000,150
S,PAOLA MIDDLE,76682,,2399029104,1387090857,405 Hospital Drive,Paola,KS,66071,-94.86160698,38.57563613,,1000,
P,PAOLA HOUSING AUTHORITY,,,,1387090776,310 S IRON Street,PAOLA,KS,66071,-94.88278409,38.56998856,,1000,150
S,SUNFLOWER ELEM,76546,,2399017834,1387090731,1401 E 303rd St,Paola,KS,66071,-94.85605642,38.57708737,,1000,150
H,Jaccard Chiropractic,,,,1387088318,4 S 1st ST Suite C,Louisburg,KS,66053,-94.67662848,38.62040661,,1000,1000
G,PRAIRIE BAND POTAWATOMI NATION PLANNING & ENVIRONMENTAL PROTECTION,,,,1387065907,15434 K Rd,Mayetta,KS,66509,-95.84836765,39.32610128,,1000,150
S,ABE HUBERT ELEMENTARY SCHOOL,78107,,2399032360,1387048725,1205 A Street,Garden City,KS,67846,-100.8736732,37.97591216,,1000,1000
H,GARDEN CITY VISION SOURCE,,20077731,,1387047101,410 CAMPUS DRIVE,GARDEN CITY,KS,67846,-100.8464175,37.96560013,,1000,1000
H,GARDEN CITY VISION SOURCE,,20185959,,1387047101,410 N CAMPUS DR,GARDEN CITY,KS,67846,-100.8464175,37.96560013,,1000,1000
G,GARDEN CITY REGIONAL AIRPORT,,,,1387046669,2225 S AIR SERVICE DR,GARDEN CITY,KS,67846,-100.7199398,37.92883607,,1000,1000
F,WEIR CITY POLICE DEPT,,,,1387044376,612 South Jefferson St,Weir,KS,66781,-94.77026784,37.30520719,,1000,1000
S,GALENA HIGH,77177,,2399026361,1387041148,702 E. 7th Street,Galena,KS,66739,-94.63412823,37.07465003,,1000,200
S,LIBERTY ELEM,77179,,2399026361,1387041148,702 E. 7th Street,Galena,KS,66739,-94.63412823,37.07465003,,1000,200
S,SPRING GROVE PRIMARY CENTER,77181,,2399026361,1387041148,702 E. 7th Street,Galena,KS,66739,-94.63412823,37.07465003,,1000,200
S,GALENA MIDDLE SCHOOL,206132,,2399026361,1387041148,702 E. 7th Street,Galena,KS,66739,-94.63412823,37.07465003,,1000,200
S,COFFEYVILLE COMMUNITY COLLEGE COLUMBUS TECHNICAL CAMPUS,,,,1387040815,509 W ELM ST,Columbus,KS,66725,-94.84871269,37.16927159,,1000,
S,COLUMBUS TECHNICAL CAMPUS,,,,1387040815,509 W Elm,Columbus,KS,66725,-94.84871269,37.16927159,,1000,
S,COLUMBUS HIGH,77168,,2399040592,1387040815,124 S High School Avenue,Columbus,KS,66725,-94.84871269,37.16927159,,1000,
S,CENTRAL ELEM,77932,,2399025367,1387040557,810 S High School Avenue,Columbus,KS,66725,-94.84902372,37.16166173,,1000,1000
S,KANSAS ONLINE LEARNING PROGRAM,,,,1387010250,2374 310th,Lost Springs,KS,66859,-96.9518849,38.52414808,,1000,1000
S,CENTRE,77266,,,1387010250,2374 310th Street,Lost Springs,KS,66859,-96.9518849,38.52414808,,1000,1000
F,KANSAS HIGHWAY PATROL CENTRAL COMMUNICATIONS,,,,1387008147,2000 N Poplar St,Hutchinson,KS,67502,-97.92723454,38.07750132,,1000,220
G,STATE FAIR BOARD,,,,1387008147,2000 N Poplar,Hutchinson,KS,67502,-97.92723454,38.07750132,,1000,220
F,HUTCHINSON CLINIC,,,,1387007870,2101 N WALDRON,Hutchinson,KS,67502,-97.89771759,38.07774034,,1000,1000
H,HUTCHINSON CLINIC PHARMACY,,20006031,,1387007870,2101 N WALDRON ST,HUTCHINSON,KS,67502,-97.89771759,38.07774034,,1000,1000
H,HUTCHINSON CLINIC PA,,20006043,,1387007870,2101 N WALDRON ST,HUTCHINSON,KS,67502,-97.89771759,38.07774034,,1000,1000
H,HUTCHINSON CLINIC PA INC,,1174041636,,1387007870,2101 N WALDRON ST,HUTCHINSON,KS,67502,-97.89771759,38.07774034,,1000,1000
H,LINCARE,,20193909,,1387006761,314 W 1ST AVE,HUTCHINSON,KS,67501,-97.93812363,38.05369793,,1000,1000
S,GRABER ELEMENTARY,77863,,2399010671,1387005334,1600 N Cleveland,Hutchinson,KS,67501,-97.91712853,38.07090666,,1000,1000
S,EDUCATION SERVICE CENTER,16032041,,2399010671,1387005333,700 E 13th,Hutchinson,KS,67501,-97.9168674,38.06740731,,1000,1000
S,HUTCHINSON COMMUNITY COLLEGE,,,,1387005130,1300 N Plum St,Hutchinson,KS,67501,-97.9204408,38.06555874,,1000,
S,HUTCHINSON HIGH SCHOOL,77864,,2399010671,1387004936,810 East 13th,Hutchinson,KS,67501,-97.91400122,38.06904757,,1000,1000
S,FAIRFIELD SCHOOLS,16061119,,2399013640,1387003931,16115 South Langdon Road,Langdon,KS,67583,-98.32318413,37.86998856,,1000,
S,COLBY MIDDLE SCHOOL,78030,,2399039012,1387001421,600 W Third St,Colby,KS,67701,-101.0524671,39.39513118,,1000,250
S,COLBY ELEM,78031,,2399039012,1387001421,600 W Third St,Colby,KS,67701,-101.0524671,39.39513118,,1000,250
S,COLBY SENIOR HIGH,78032,,2399039012,1387001421,600 W Third St,Colby,KS,67701,-101.0524671,39.39513118,,1000,250
S,BELLUS ACADEMY,,,2399008804,1386993738,1130 Westloop Place,Manhattan,KS,66502,-96.60819567,39.19166635,,1000,
H,KONZA PRAIRIE COMMUNITY HEALTH CENTER INC,,1326698366,,1386993254,2030 TECUMSEH RD,MANHATTAN,KS,66502,-96.59299001,39.19153172,,1000,1000
H,"ANDREWS AND ASSOCIATES, INC.",,1326600354,,1386993126,1506 BROWNING PL,MANHATTAN,KS,66502,-96.60658447,39.19507817,,1000,1000
H,COTTON O'NEIL CLINIC REVOCABLE TRUST,,1417902297,,1386993122,1419 WESTPORT LANDING PL,MANHATTAN,KS,66502,-96.60664548,39.19408107,,1000,1000
H,CENTERPOINTE PHYSICIANS PA,,1114993698,,1386992869,2331 TUTTLE CREEK BLVD,MANHATTAN,KS,66502,-96.57368918,39.20919158,,1000,1000
S,SOULE ELEMENTARY SCHOOL,78074,,2399013216,1386986355,401 SOULE ST,Dodge City,KS,67801,-100.0214789,37.77185137,,1000,
F,JEFFERSON COUNTY FIRE DISTRICT # 2,,,,1386970886,604 E Front ST,Perry,KS,66073,-95.38811763,39.07266083,,1000,
L,DOROTHY BRAMLAGE PUB LIBRARY,137647,,2399005683,1386958368,230 W. 7th Street,Junction City,KS,66441,-96.832878,39.02962753,,1000,2000
F,FORT RILEY FIRE DEPARTMENT,,,,1386956720,1020 Huebner RD,Fort Riley,KS,66442,-96.78511233,39.06945151,,1000,10000
F,UNIVERSITY OF KANSAS PUBLIC SAFETY OFFICE,,,,1386946654,1501 Crestline Dr,Lawrence,KS,66045,-95.24358911,38.95724791,,1000,
H,STATE OF KANSAS-ACCOUNTING SERVICES,,1124411251,,1386946654,1200 SUNNYSIDE AVE,LAWRENCE,KS,66045,-95.24358911,38.95724791,,1000,1000
S,UNIVERSITY OF KANSAS,,,,1386946654,1450 Jayhawk Blvd,Lawrence,KS,66045,-95.24358911,38.95724791,,1000,
S,BAKER UNIVERSITY,,,,1386946374,615 Dearborn Street,Baldwin City,KS,66006,-95.18828968,38.77850704,,1000,
H,SKIN WIN DERMATOLOGY PC,,1184759797,,1386934325,305 W 15TH ST,LIBERAL,KS,67901,-100.9275515,37.05461865,,1000,
H,SOUTHWEST MEDICAL CENTER,,1356347116,,1386934325,305 W 15TH ST,LIBERAL,KS,67901,-100.9275515,37.05461865,,1000,
S,Kansas State University,,,,1386933507,1081 Stadium Rd.,Liberal ,KS,67901,-100.9448172,37.04143071,,1000,220
F,SUMNER COUNTY FIRE DISTRICT 10,,,,1386927705,714 SOUTH 2ND ST,Geuda Springs,KS,67051,-97.1498847,37.10864243,,1000,2000
G,NEOSHO COUNTY OFFICE,,,,1386909291,100 S Main St,Erie,KS,66733,-95.24256207,37.56789235,,1000,
F,HANDSHY MEDICAL CLINIC - CHANUTE,,,,1386908471,1501 WEST 7TH ST,Chanute,KS,66720,-95.47298401,37.67407807,,1000,
F,NMRMC FAMILY MEDICINE CLINIC,,,,1386908471,1501 W. 7th St,Chanute,KS,66720,-95.47298401,37.67407807,,1000,
F,NMRMC ORTHOPEDIC CLINIC,,,,1386908471,1501 W. 7th St,Chanute,KS,66720,-95.47298401,37.67407807,,1000,
F,FRANKFORT COMMUNITY CARE HOME,,,,1386897362,510 N WALNUT ST,Frankfort,KS,66427,-96.41237805,39.70589115,,1000,100
H,FRANKFORT COMMUNITY CARE HOME,,175417,,1386897362,510 N WALNUT STREET,FRANKFORT,KS,66427,-96.41237805,39.70589115,,1000,100
S,SPECIAL SERVICES,,,2399038898,1386894660,1004 Oak,Marysville,KS,66508,-96.64512333,39.83818748,,1000,100
F,HEARTLAND HAVEN,,,,1386886788,1345 CHEROKEE RD,Inman,KS,67546,-97.67554037,38.22775234,,1000,50
F,KU MEDWEST AMBULATORY SURGERY CENTER LLC,,,,1386874063,7405 RENNER RD,Shawnee,KS,66217,-94.77597831,38.99465703,,1000,2000
H,JAYHAWK PRIMARY CARE INC,,1003037615,,1386874063,7405 RENNER RD,SHAWNEE,KS,66217,-94.77597831,38.99465703,,1000,2000
H,KANSAS UNIVERSITY PHYSICIANS INC,,1033230933,,1386874063,7405 RENNER RD,SHAWNEE,KS,66217,-94.77597831,38.99465703,,1000,2000
F,LEAWOOD POLICE DEPT,,,,1386869521,9617 Lee Blvd,Leawood,KS,66206,-94.61496221,38.95348891,,1000,1000
H,ANESTHESIOLOGY PROFESSIONALS PA,,1023104445,,1386869100,5675 ROE BLVD,ROELAND PARK,KS,66205,-94.63910173,39.02568713,,1000,10000
H,SUNFLOWER MEDICAL GROUP PA,,1407404486,,1386869100,5675 ROE BLVD,ROELAND PARK,KS,66205,-94.63910173,39.02568713,,1000,10000
C,ROELAND PARK COMMUNITY CENTER,,,,1386868746,4850 Rosewood Dr,Roeland Park,KS,66205,-94.64493421,39.0413277,See response to 1.3.1 Text Box in Initial Proposal - Volume 1,1000,2000
S,OLATHE VIRTUAL SCHOOL,,,2399022530,1386868391,14090 S. Black Bob Road,Olathe,KS,66062,-94.76212303,38.87311198,,1000,2000
H,KANSAS CARENOW URGENT CARE LLC,,1003016361,,1386867387,14721 W 151ST ST,OLATHE,KS,66062,-94.75674549,38.854301,,1000,5000
S,DAYTON CREEK ELEMENTARY SCHOOL,17030892,,2399016915,1386865058,21120 W 188th Ter,Spring Hill,KS,66083,-94.83175699,38.78902757,,1000,300
H,OVERLAND PARK SURGICAL SPECIALTIES LLC,,1043207426,,1386843017,17050 W 96TH ST,LENEXA,KS,66220,-94.78403422,38.95470104,,1000,2000
C,TOMAHAWK RIDGE COMMUNITY CENTER,,,,1386842048,11902 Lowell Ave,Overland Park,KS,66213,-94.67971773,38.9111163,See response to 1.3.1 Text Box in Initial Proposal - Volume 1,1000,
H,IVXPRESS INC,,1114953205,,1386841775,13340 METCALF AVE,OVERLAND PARK,KS,66213,-94.66922878,38.8861208,,1000,
H,CHERUB MEDICAL SUPPLY LLC,,20053929,,1386840082,11217 JOHNSON DR,SHAWNEE,KS,66203,-94.71644046,39.02267283,,1000,2000
F,SCOTT CITY POLICE DEPT,,,,1386826837,301 Court St,Scott City,KS,67871,-100.9087067,38.484336,,1000,1000
G,SCOTT COUNTY,,,,1386826836,303 Court St,Scott City,KS,67871,-100.9087067,38.48401607,,1000,1000
S,Kansas State University,,,,1386826835,210 W. 4th St.,Scott City,KS,67871,-100.9091787,38.48378794,,1000,500
S,HERINGTON HIGH,77811,,,1386824637,1401 North D,Herington,KS,67449,-96.94125194,38.68763833,,1000,50
P,HOUSING AUTHORITY OF THE CITY OF HERINGTON KS,,,,1386824621,201 E HELEN Street,HERINGTON,KS,67449,-96.94156797,38.67911158,,1000,1000
S,HERINGTON ELEM,77812,,,1386824502,1403 North D Street,Herington,KS,67449,-96.94077389,38.68742831,,1000,50
F,LOGAN COUNTY HOSPITAL,,,,1386818939,211 CHERRY AVE,Oakley,KS,67748,-100.8632731,39.12719838,,1000,
F,NEW FRONTIERS HEALTH SERV (MAPLE),,,,1386818939,216 MAPLE,Oakley,KS,67748,-100.8632731,39.12719838,,1000,
H,LOGAN COUNTY HOSPITAL,,171326,,1386818939,211 CHERRY AVENUE,OAKLEY,KS,67748,-100.8632731,39.12719838,,1000,
H,COUNTY OF LOGAN,,1013901958,,1386818939,211 CHERRY AVE,OAKLEY,KS,67748,-100.8632731,39.12719838,,1000,
S,OAKLEY MIDDLE SCHOOL,78059,,2399008630,1386818724,611 Center,Oakley,KS,67748,-100.8542512,39.13165273,,1000,250
F,BETHEL HOME,,,,1386816484,300 S AZTEC ST,Montezuma,KS,67867,-100.4411899,37.59307197,,1000,1000
H,BETHEL HOME,,175528,,1386816484,300 S AZTEC ST,MONTEZUMA,KS,67867,-100.4411899,37.59307197,,1000,1000
H,GIAIMO MOBILE PODIATRY LLC,,1265831994,,1386816484,300 S AZTEC ST,MONTEZUMA,KS,67867,-100.4411899,37.59307197,,1000,1000
F,RRH PHYSICIANS CLINIC,,,,1386814394,222 SOUTH KANSAS,Russell,KS,67665,-98.85919073,38.88226789,,1000,1000
F,RUSSELL POLICE DEPARTMENT,,,,1386813743,339 E 8th St,Russell,KS,67665,-98.85651747,38.8933009,,1000,1000
F,RUSSELL POLICE DEPT,,,,1386813743,339 E 8th St,Russell,KS,67665,-98.85651747,38.8933009,,1000,1000
H,SMITH COUNTY MEMORIAL HOSPITAL,,171377,,1386803436,921 E. HIGHWAY 36,SMITH CENTER,KS,66967,-98.77156797,39.77959152,,1000,
H,"HEARTLAND DERMATOLOGY AND SKIN CANCER CENTER, PA",,1104296805,,1386803436,921 E HWY 36,SMITH CENTER,KS,66967,-98.77156797,39.77959152,,1000,
S,PRATT LEARNING CENTER,,,2399010849,1386797460,401 S. Hamilton,Pratt,KS,67124,-98.74397815,37.64234742,,1000,
S,EARLY CHILDHOOD CENTER,17002232,,2399010849,1386797460,401 S. Hamilton,Pratt,KS,67124,-98.74397815,37.64234742,,1000,
F,GREAT BEND FIRE/ EMS,,,,1386795725,1205 Williams ST,Great Bend,KS,67530,-98.76695145,38.36362855,,1000,
F,WOODRIDGE ESTATES,,,,1386783428,329 N KAY LANE,Parsons,KS,67357,-95.23520134,37.34421109,,1000,1000
H,WALMART PHARMACY 10-5990,,20030265,,1386777080,2111 N AMIDON AVE,WICHITA,KS,67203,-97.36488424,37.72164835,,1000,
H,SPEECH SWALLOWING AND VOICE CENTER PA,,1104554369,,1386775939,13213 W 21ST CT,WICHITA,KS,67235,-97.4954123,37.72120731,,1000,
H,"HEARTLAND DERMATOLOGY AND SKIN CANCER CENTER, PA",,1326484999,,1386775939,13213 W 21ST CT,WICHITA,KS,67235,-97.4954123,37.72120731,,1000,
S,BUCKNER PERFORMING ARTS MAGNET ELEM,77681,,2399039775,1386774644,3530 E 27th N,Wichita,KS,67220,-97.29378419,37.73420809,,1000,5000
S,CALDWELL ELEM,77671,,2399039775,1386772901,1441 S Edgemoor,Wichita,KS,67218,-97.27279009,37.66859742,,1000,1000
S,CURTIS MIDDLE SCHOOL,77673,,2399039775,1386772901,1031 S Edgemoor,Wichita,KS,67218,-97.27279009,37.66859742,,1000,1000
S,RUTH CLARK ELEMENTARY K-5,230693,,2399016220,1386772175,1900 W. 55th Street South,Wichita,KS,67217,-97.36694541,37.59492706,,1000,1000
S,CAMPUS HIGH HAYSVILLE,77667,,2399016220,1386772174,2100 W 55th St South,Wichita,KS,67217,-97.3668674,37.59408107,,1000,1000
S,DERBY MIDDLE SCH,77393,,2399010679,1386770942,801 E Madison,Derby,KS,67037,-97.25939575,37.54655022,,1000,1000
H,"DERBY HEALTH & REHABILITATION, LLC",,175514,,1386767397,731 KLEIN CIRCLE,DERBY,KS,67037,-97.6808958,37.5753061,,1000,100
S,REX ELEM,77435,,2399016220,1386766258,1100 W. Grand,Haysville,KS,67060,-97.36493921,37.5653101,,1000,1000
S,PRAIRIE ELEMENTARY SCHOOL,76852,,2399016220,1386765687,7101 S. Meridian,Haysville,KS,67060,-97.37369018,37.56698726,,1000,1000
S,HAYSVILLE HIGH SCHOOL,,,2399016220,1386765638,1975 W. Grand Ave.,Haysville,KS,67060,-97.37626244,37.56304297,,1000,1000
S,TRI CITY DAY AT SCHOOL ALT,,,2399016220,1386765638,1975 W. Grand Ave.,Haysville,KS,67060,-97.37626244,37.56304297,,1000,1000
S,MAIZE MIDDLE SCHOOL,16048269,,2399017989,1386765198,4600 N Maize Rd,Maize,KS,67101,-97.46040186,37.7673413,,1000,
S,USD 265 - GODDARD VIRTUAL SCHOOL,,,2399004922,1386762046,19701 W. 23rd Street S,Goddard,KS,67052,-97.56741256,37.64887745,,1000,1000
S,AMELIA EARHART ELEMENTARY SCHOOL,230705,,2399004922,1386762043,19201 W. 23rd Street South,Goddard,KS,67052,-97.56619543,37.64600027,,1000,1000
S,GODDARD MIDDLE SCHOOL,77423,,2399004922,1386762042,2700 S 199th St W,Goddard,KS,67052,-97.56977379,37.64411808,,1000,1000
S,APOLLO ELEMENTARY SCHOOL,16062574,,2399004922,1386760217,16158 W Apollo,Goddard,KS,67052,-97.52733955,37.66989055,,1000,200
C,STEVE CLARK YMCA,,,,1386756242,2060 N. Mid-Campus Dr,Wichita,KS,67208,-97.29538439,37.71833802,See response to 1.3.1 Text Box in Initial Proposal - Volume 1,1000,
G,WICHITA STATE UNIVERISTY,,,,1386756242,1845 Fairmount,Wichita,KS,67260,-97.29538439,37.71833802,,1000,
S,WICHITA STATE UNIVERSITY,,,,1386756242,1845 N. Fairmount,Wichita,KS,67260,-97.29538439,37.71833802,,1000,
H,ASCENSION VIA CHRISTI REHABILITATION HOSPITAL INC,,1013391259,,1386751530,10100 E SHANNON WOODS ST,WICHITA,KS,67226,-97.22071783,37.73222641,,1000,
H,KANSAS JOINT AND SPINE SPECIALISTS LLC,,1407899958,,1386751530,10100 E SHANNON WOODS CIR,WICHITA,KS,67226,-97.22071783,37.73222641,,1000,
H,WICHITA SURGICAL SPECIALISTS PA,,1063419844,,1386751410,10090 E SHANNON WOODS CIR,WICHITA,KS,67226,-97.22274009,37.73258282,,1000,1000
H,"THE EYE GALLERY, LLC",,1003571324,,1386751115,12330 E 21ST ST N,WICHITA,KS,67206,-97.19471729,37.72369093,,1000,1000
S,WICHITA STATE UNIVERSITY CAMPUS OF APPLIED SCIENCES AND TECHNOLOGY,,,,1386750971,4004 N WEBB RD,Wichita,KS,67226,-97.22427324,37.75752232,,1000,1000
S,WICHITA STATE UNIVERSITY-CAMPUS OF APPLIED SCIENCES AND TECHNOLOGY,,,,1386750971,4004 N Webb Rd,Wichita,KS,67226,-97.22427324,37.75752232,,1000,1000
F,KANSAS ENDOSCOPY LLC,,,,1386750218,848 N ST FRANCIS,Wichita,KS,67214,-97.33134095,37.69958252,,1000,1000
F,SELECT SPECIALTY HOSPITAL WICHITA,,,,1386750218,929 NORTH ST FRANCIS,Wichita,KS,67214,-97.33134095,37.69958252,,1000,1000
F,VIA CHRISTI - TRANSPLANT UNIT,,,,1386750218,929 N ST FRANCIS,Wichita,KS,67214,-97.33134095,37.69958252,,1000,1000
H,"ASCENSION VIA CHRISTI HOSPITALS WICHITA, INC.",,170122,,1386750218,929 NORTH ST FRANCIS STREET,WICHITA,KS,67214,-97.33134095,37.69958252,,1000,1000
H,SELECT SPECIALTY HOSPITAL WICHITA,,172007,,1386750218,929 NORTH ST FRANCIS,WICHITA,KS,67214,-97.33134095,37.69958252,,1000,1000
H,INPATIENT CONSULTANTS OF KANSAS PA,,1003477522,,1386750218,929 N ST FRANCIS,WICHITA,KS,67214,-97.33134095,37.69958252,,1000,1000
H,"ANESTHESIA CONSULTING SERVICES, PA",,1013145572,,1386750218,929 N SAINT FRANCIS AVE,WICHITA,KS,67214,-97.33134095,37.69958252,,1000,1000
H,COGENT HEALTHCARE OF TEXAS PA,,1053869917,,1386750218,929 N SAINT FRANCIS AVE,WICHITA,KS,67214,-97.33134095,37.69958252,,1000,1000
H,ASCENSION VIA CHRISTI HOSPITALS WICHITA INC,,1124000435,,1386750218,929 N SAINT FRANCIS AVE,WICHITA,KS,67214,-97.33134095,37.69958252,,1000,1000
H,CARDIOVASCULAR CARE PA,,1164493201,,1386750218,929 N SAINT FRANCIS AVE,WICHITA,KS,67214,-97.33134095,37.69958252,,1000,1000
H,RICHARD A STECKLEY MD PA,,1184759797,,1386750218,929 N ST FRANCIS,WICHITA,KS,67214,-97.33134095,37.69958252,,1000,1000
H,AZIZ R MAKSOUD MD PA,,1306015060,,1386750218,929 N ST FRANCIS,WICHITA,KS,67214,-97.33134095,37.69958252,,1000,1000
H,"ASCENSION MEDICAL GROUP VIA CHRISTI, PA",,1316956493,,1386750218,848 N SAINT FRANCIS AVE,WICHITA,KS,67214,-97.33134095,37.69958252,,1000,1000
H,"WICHITA NEPHROLOGY GROUP, PA",,1316990781,,1386750218,929 N ST FRANCIS,WICHITA,KS,67214,-97.33134095,37.69958252,,1000,1000
H,HOSPITALIST MEDICINE PHYSICIANS OF TEXAS PLLC,,1386165702,,1386750218,929 N SAINT FRANCIS AVE,WICHITA,KS,67214,-97.33134095,37.69958252,,1000,1000
H,"SOUTHCENTRAL PATHOLOGY LABORATORY, PA",,1396772703,,1386750218,929 N ST FRANCIS,WICHITA,KS,67214,-97.33134095,37.69958252,,1000,1000
H,TRUE PHYSICAL THERAPY PA,,1336372887,,1386749219,1819 N GREENWICH RD,WICHITA,KS,67206,-97.20855167,37.71654222,,1000,1000
H,DRS PRICE YOUNG ODLE & HORSCH PA,,20285133,,1386744817,800 N 4TH ST,BURLINGTON,KS,66839,-95.73906772,38.20195176,,1000,1000
L,WINFIELD PUBLIC LIBRARY,137917,,2399022884,1386741880,605 College,Winfield,KS,67156,-96.97942876,37.24317698,,1000,1000
F,CUMBERNAULD VILLAGE,,,,1386741813,716 TWEED ST,Winfield,KS,67156,-96.97423924,37.25518018,,1000,1000
H,CUMBERNAULD VILLAGE,,,,1386741813,716 TWEED STREET,WINFIELD,KS,67156,-96.97423924,37.25518018,,1000,1000
H,KEY REHABILITATION INC,,1326788902,,1386741813,716 TWEED,WINFIELD,KS,67156,-96.97423924,37.25518018,,1000,1000
S,SACRED HEART SCHOOL,77493,,,1386735622,102 COTTONWOOD ST,EMPORIA,KS,66801,-96.17343916,38.3993365,,1000,1000
G,BUTLER COUNTY,,,,1386731997,205 W Central Ave,El Dorado,KS,67042,-96.85193995,37.81692088,,1000,
H,SUSAN B ALLEN MEM HOSPITAL HHA,,177053,,1386731060,620 W CENTRAL,EL DORADO,KS,67042,-96.85787854,37.81769195,,1000,
S,ANDOVER CENTRAL MIDDLE SCHOOL,224896,,2399003685,1386726861,903 E. Central,Andover,KS,67002,-97.12461728,37.69252682,,1000,5000
S,SUNFLOWER ELEMENTARY SCHOOL,220663,,2399003685,1386726639,616 E. Douglas,Andover,KS,67002,-97.12667848,37.69121779,,1000,
S,CENTRAL MIDDLE,76731,,,1386719422,925 Ivandale,Kansas City,KS,66101,-94.63329014,39.0953371,,1000,
S,F L SCHLAGLE HIGH,76759,,2399047843,1386717367,2214 N 59th St,Kansas City,KS,66104,-94.71877363,39.1311783,,1000,
S,PIPER MIDDLE,76795,,2399036317,1386714190,4420 North 107 Street,Kansas City,KS,66109,-94.83135195,39.16664223,,1000,
P,NORTH NEWTON HOUSING AUTHORITY,,,,1386705868,307 WEST 24TH St.,NORTH NEWTON,KS,67117,-97.34890661,38.07120079,,1000,1000
F,SCHOWALTER VILLA,,,,1386704959,200 W CEDAR,Hesston,KS,67062,-97.43271709,38.13128679,,1000,1000
H,SCHOWALTER VILLA,,175386,,1386704959,200 W CEDAR,HESSTON,KS,67062,-97.43271709,38.13128679,,1000,1000
S,LAKIN HIGH,78143,,2399013293,1386700472,407 N Campbell,Lakin,KS,67860,-101.2643233,37.94033722,,1000,1000
S,OSBORNE ELEM,77840,,2399044948,1386697955,234 N Third,Osborne,KS,67473,-98.69716257,39.44035822,,1000,
G,OSBORNE COUNTY DISTRICT COURT,,,,1386697825,423 W Main St,Osborne,KS,67473,-98.70137399,39.43770896,,1000,
S,OSBORNE JUNIOR/SENIOR HIGH,77839,,2399044948,1386697605,219 N Second,Osborne,KS,67473,-98.6968844,39.44042861,,1000,
S,ALLEN COMMUNITY COLLEGE,,,,1386692989,100 BLOOMQUIST DR,BURLINGAME,KS,66413,-95.83779553,38.75846003,,1000,
S,BURLINGAME JUNIOR/SENIOR HIGH,76939,,2399010595,1386692989,100 Bloomquist Dr.,Burlingame,KS,66413,-95.83779553,38.75846003,,1000,
S,BURLINGAME ELEMENTARY,76941,,2399010595,1386692989,100 Bloomquist Dr.,Burlingame,KS,66413,-95.83779553,38.75846003,,1000,
P,VICTORIA HOUSING AUTHORITY,,,,1386688589,612 Grant St Ter,VICTORIA,KS,67671,-99.14764058,38.85242881,,1000,1000
S,HIGHLAND COMMUNITY COLLEGE,,,,1386680078,606 W Main,Highland,KS,66035,-95.27384514,39.86296148,,1000,
F,BELOIT POLICE DEPT,,,,1386671136,114 S Campbell Ave,Beloit,KS,67420,-98.10792851,39.45855042,,1000,1000
F,MITCHELL COUNTY 911 COMMUNICATIONS CENTER,,,,1386671136,114 S Campbell Ave,Beloit,KS,67420,-98.10792851,39.45855042,,1000,1000
F,REPUBLIC COUNTY COMMUNICATIONS CENTER,,,,1386671136,114 S Campbell Ave,Beloit,KS,67420,-98.10792851,39.45855042,,1000,1000
H,"COMMUNITY HOSPICES OF AMERICA, LLC",,171560,,1386667632,200 E CENTENNIAL,PITTSBURG,KS,66762,-94.70463928,37.38074064,,1000,1000
H,ASCENSION AT HOME,,177117,,1386667632,200 E CENTENNIAL DRIVE,PITTSBURG,KS,66762,-94.70463928,37.38074064,,1000,1000
H,APOLLO MEDICAL SERVICES,,20233479,,1386667632,200 E CENTENNIAL DR,PITTSBURG,KS,66762,-94.70463928,37.38074064,,1000,1000
S,WEST FRANKLIN HIGH SCHOOL,16044775,,2399043009,1386656111,511 East Franklin,Pomona,KS,66076,-95.44552837,38.6093065,,1000,50
S,GODDARD HIGH,77420,,2399004922,1340435168,2500 S 199 St West,Goddard,KS,67052,-97.56933475,37.64712138,,1000,10000
H,AZRIA HEALTH WICHITA,,175563,,1340434123,7057 WEST VILLAGE CIRCLE,WICHITA,KS,67205,-97.42393411,37.75657122,,1000,1000
H,WICHITA SURGICAL SPECIALISTS PA,,1053533349,,1340433933,3840 N RIDGE RD,WICHITA,KS,67205,-97.42560638,37.75362693,,1000,1000
H,KANSAS POST ACUTE MEDICAL SERVICES 1 PA,,1235666900,,1340433749,300 E CHICAGO AVE,COLWICH,KS,67030,-97.58333915,37.72795636,,1000,1000
H,US ANESTHESIA PARTNERS OF KANSAS PA,,1053999185,,1340432834,2818 N GREENWICH RD,WICHITA,KS,67226,-97.20694541,37.73480705,,1000,1000
H,WAL-MART PHARMACY 10-4321,,20028537,,1340432616,5475 NORTH MERIDIAN,WICHITA,KS,67204,-97.37342816,37.78452002,,1000,
H,HARTER PHYSICAL THERAPY LLC,,1306338629,,1340431122,501 E ROSS ST,CLEARWATER,KS,67026,-97.50041286,37.50424109,,1000,1000
S,STUCKY MIDDLE SCHOOL,16021288,,2399039775,1340430355,4545 N Broadview Circle,Wichita,KS,67220,-97.28769058,37.76421109,,1000,
H,JURY EYE CARE LLC,,1275655847,,1340429405,2701 N ROCK RD,DERBY,KS,67037,-97.24526234,37.57607227,,1000,1000
H,WALMART PHARMACY 10-3155,,20024559,,1340428793,1106 S ROCK RD,DERBY,KS,67037,-97.24242806,37.53263683,,1000,
L,MOUNT HOPE LIBRARY,137884,,2399027547,1340428024,109 S. Ohio,Mount Hope,KS,67108,-97.66554037,37.8683324,,1000,1000
S,ST PETER CATHOLIC SCHOOL,77642,,2399003426,1340427921,11010 SW BLVD,WICHITA,KS,67215,-97.47006282,37.62546211,,1000,1000
L,GARDEN PLAIN COMMUNITY LIBRARY,,,,1340427563,421 W. Ave B,Graden Plains,KS,67050,-97.68498921,37.6583174,,1000,1000
S,CHRISTA MCAULIFFE ACADEMY,16067875,,2399039775,1340427349,2055 S 143rd E,Wichita,KS,67230,-97.17271209,37.65496706,,1000,
S,ST. MARKS SCHOOL,77381,,2399030329,1340426097,19001 West 29th Street North,Colwich,KS,67030,-97.18809562,37.88990056,,1000,100
S,CIRCLE GREENWICH ELEMENTARY,17017439,,2399019408,1340425963,3250 N Greenwich Rd,Wichita,KS,67226,-97.20635645,37.74213788,,1000,
P,SEDGWICK HOUSING AUTHORITY,,,,1340423969,211 HYMER DR,SEDGWICK,KS,67135,-97.42616743,37.9093775,,1000,1000
F,MOUNT HOPE FIRE DEPARTMENT,,,,1340421195,124 E Main ST,Mount Hope,KS,67108,-97.66428424,37.86893246,,1000,
H,KANSAS POST ACUTE MEDICAL SERVICES 1 PA,,1144565433,,1340420286,719 N KLEIN CIR,DERBY,KS,67037,-97.69565638,37.57713738,,1000,50
F,VALLEY CENTER POLICE DEPT,,,,1340419188,616 E 5th St,Valley Center,KS,67147,-97.36523434,37.83978754,,1000,1000
S,VALLEY CENTER MIDDLE SCHOOL,77517,,2399031532,1340419183,800 N. Meridian,Valley Center,KS,67147,-97.3708518,37.84479804,,1000,
S,ST MARY PARISH CATHOLIC SCHOOL,,,,1340418999,2306 E MEADOWLARK BLVD,DERBY,KS,67037,-97.23442326,37.56498106,,1000,1000
L,MULVANE PUBLIC LIBRARY,137887,,,1340418671,408 N. 2nd Ave.,Mulvane,KS,67110,-97.17494521,37.58326199,,1000,1000
S,VALLEY CENTER HIGH,77518,,2399031532,1340417848,9600 N. Meridian,Valley Center,KS,67147,-97.36939575,37.85715038,,1000,100
S,SOUTHEAST HIGH,77164,,2399039775,1340417820,2641 S. 127th St E,Wichita,KS,67207,-97.19588434,37.6471589,,1000,
F,MT HOPE POLICE DEPT,,,,1340417591,112 W Main St,Mount Hope,KS,67108,-97.66567338,37.86896846,,1000,
F,MOUNT HOPE NURSING CENTER,,,,1340417510,704 E MAIN ST,Mount Hope,KS,67108,-97.65763958,37.86902057,,1000,1000
H,MOUNT HOPE NURSING CENTER,,175481,,1340417510,704 E MAIN STREET,MOUNT HOPE,KS,67108,-97.65763958,37.86902057,,1000,1000
F,LARSEN INDEPENDENT LIVING APARTMENTS,,,,1340417506,602 East Main,Mount Hope,KS,67108,-97.65891761,37.86905057,,1000,1000
H,"COUNTRY CARE HOSPICE, INC",,171615,,1340417504,104 N STEEN STREET,MOUNT HOPE,KS,67108,-97.65941776,37.86945051,,1000,1000
H,"ADVANCED PAIN MEDICINE ASSOCIATES, LLC",,1164856613,,1340417401,3715 N OLIVER ST,WICHITA,KS,67220,-97.28151797,37.75120679,,1000,1000
H,RYAN DUGAN EYE CARE,,20110167,,1340416335,228 ANDALE RD,ANDALE,KS,67001,-97.62561238,37.79006767,,1000,1000
F,SEDGWICK COUNTY FIRE DISTRICT #1,,,,1340415957,7750 N Wyandotte WAY,Park City,KS,67147,-97.32144096,37.82452802,,1000,
S,EISENHOWER HIGH SCHOOL,16070225,,2399004922,1340413774,1230 S 167th St. W.,Goddard,KS,67052,-97.5998907,37.6023218,,1000,200
L,COLWICH COMMUNITY LIBRARY,137841,,,1340413087,432 W. Colwich,Colwich,KS,67030,-97.54067388,37.78123879,,1000,
H,"ASCENSION MEDICAL GROUP VIA CHRISTI, PA",,1285691790,,1340412329,14700 W SAINT TERESA ST,WICHITA,KS,67235,-97.51249006,37.72541111,,1000,1000
F,ASCENSION VIA CHRISTI - ST. TERESA CAMPUS,,,,1340412324,14800 W St. Teresa St,Wichita,KS,67235,-97.51313913,37.72573614,,1000,
H,VIA CHRISTI REHAB UNIT,,,,1340412324,14800 W ST TERESA,WICHITA,KS,67235,-97.51313913,37.72573614,,1000,
H,"VIA CHRISTI HOSPITAL WICHITA ST TERESA, INC",,170200,,1340412324,14800 WEST ST TERESA,WICHITA,KS,67235,-97.51313913,37.72573614,,1000,
H,COGENT HEALTHCARE OF TEXAS PA,,1013398957,,1340412324,14800 W SAINT TERESA ST,WICHITA,KS,67235,-97.51313913,37.72573614,,1000,
H,HOSPITALIST MEDICINE PHYSICIANS OF TEXAS PLLC,,1013398957,,1340412324,14800 W SAINT TERESA ST,WICHITA,KS,67235,-97.51313913,37.72573614,,1000,
H,KANSAS IMAGING CONSULTANTS PA,,1063455947,,1340412324,14800 W SAINT TERESA ST,WICHITA,KS,67235,-97.51313913,37.72573614,,1000,
H,CEP AMERICA - KANSAS LLC,,1124552609,,1340412324,14800 W SAINT TERESA ST,WICHITA,KS,67235,-97.51313913,37.72573614,,1000,
H,CARDIOVASCULAR CARE PA,,1164493201,,1340412324,14800 W SAINT TERESA ST,WICHITA,KS,67235,-97.51313913,37.72573614,,1000,
H,"ANESTHESIA CONSULTING SERVICES, PA",,1225291404,,1340412324,14800 W SAINT TERESA ST,WICHITA,KS,67235,-97.51313913,37.72573614,,1000,
H,"HEARTLAND CARDIOLOGY, LLC",,1376500785,,1340411476,1719 E CAMBRIDGE ST,DERBY,KS,67037,-97.24516733,37.57343791,,1000,1000
S,ANDALE ELEM-MIDDLE,77325,,2399032514,1340411262,500 W. Rush,Andale,KS,67001,-97.63158497,37.79393296,,1000,
S,ANDALE HIGH,77324,,2399032514,1340411253,700 West Rush,Andale,KS,67001,-97.63492321,37.794347,,1000,
S,VERMILLION ELEMENTARY SCHOOL,77458,,2399017989,1340410621,501 James,Maize,KS,67101,-97.46941776,37.77149071,,1000,
S,MAIZE VIRTUAL PREPARATORY SCHOOL,,,2399017989,1340410616,905 W Academy Ave,Maize,KS,67101,-97.47727354,37.7723688,,1000,
S,MAIZE ELEMENTARY,77455,,2399017989,1340410613,305 W. Jones,Maize,KS,67101,-97.47146796,37.77152172,,1000,
S,MAIZE SR HIGH,,,2399017989,1340410597,11600 W 45th St N,Maize,KS,67101,-97.4768904,37.76954152,,1000,
S,PRAY-WOODMAN ELEMENTARY,77454,,2399017989,1340410594,605 W Academy Ave,Maize,KS,67101,-97.47605642,37.76773134,,1000,
S,GARDEN PLAIN ELEM,77418,,2399030329,1340407924,700 Section Line,Garden Plain,KS,67050,-97.67872369,37.66075164,,1000,
L,VIOLA TOWNSHIP LIBRARY,137910,,,1340407803,100 N. Grice,Viola,KS,67149,-97.64237805,37.48279784,,1000,1000
S,ST CECILIA CATHOLIC SCHOOL,77437,,,1340406881,1912 W GRAND AVE,HAYSVILLE,KS,67060,-97.37375119,37.56518218,,1000,1000
S,HAYSVILLE WEST MIDDLE SCHOOL,16049837,,2399016220,1340406879,1956 W. Grand Ave.,Haysville,KS,67060,-97.37631745,37.56575014,,1000,1000
S,COLWICH ELEM,77380,,2399030329,1340406755,401 South Marion,Colwich,KS,67030,-97.54201202,37.77813148,,1000,
H,CVS PHARMACY #17502,,19902909,,1340406620,2024 NORTH ROCK RD,DERBY,KS,67037,-97.24104092,37.56842841,,1000,
S,MAIZE INTERMEDIATE SCHOOL,17031732,,2399017989,1340406059,12100 W 45th Street N,Maize,KS,67101,-97.4818629,37.7673083,,1000,1000
F,WESLEY MEDICAL CENTER - DERBY ER,,,,1340405788,2648 N Rock Rd,Derby,KS,67037,-97.22842866,37.58140071,,1000,300
H,CAREPOINT EMERGENCY MEDICINE KANSAS LLC,,1114152832,,1340405788,2648 N ROCK RD,DERBY,KS,67037,-97.22842866,37.58140071,,1000,300
S,DERBY NORTH MIDDLE SCHOOL,17006449,,2399010679,1340405767,3100 N Rock Road,Derby,KS,67037,-97.24179099,37.58306197,,1000,
F,ROCK REGIONAL HOSPITAL,,,,1340404922,3251 North Rock Road,Derby,KS,67037,-97.24718453,37.58295886,,1000,
H,"ROCK REGIONAL HOSPITAL, LLC",,170204,,1340404922,3251 NORTH ROCK ROAD,DERBY,KS,67037,-97.24718453,37.58295886,,1000,
H,KANSAS IMAGING CONSULTANTS PA,,1053756361,,1340404922,3251 N ROCK RD,DERBY,KS,67037,-97.24718453,37.58295886,,1000,
H,"THE INPATIENT GROUP, LLC",,1093041105,,1340404922,3251 N ROCK RD,DERBY,KS,67037,-97.24718453,37.58295886,,1000,
S,ORION EDUCATION & TRAINING CENTER,,,,1340404025,13939 W DIAGONAL RD,Clearwater,KS,67026,-97.49996771,37.51207187,,1000,1000
H,ADVANCED PT LLC,,1063824134,,1340403594,4590 N MAIZE RD,MAIZE,KS,67101,-97.46252307,37.76550712,,1000,1000
H,DOPPS CHIROPRACTIC INC,,1356362123,,1340403594,4590 N MAIZE RD,MAIZE,KS,67101,-97.46252307,37.76550712,,1000,1000
F,MAIZE POLICE DEPT,,,,1340403418,10100 W Grady Ave,Maize,KS,67101,-97.45974579,37.75610128,,1000,
S,LAKESIDE ACADEMY,,,2399004922,1340402793,24401 W MacArthur Rd,Goddard,KS,67052,-97.62199091,37.6173273,,1000,1000
F,GRACEMED,,,,1340402588,101 E. Ross,Clearwater,KS,67026,-97.50576239,37.504338,,1000,1000
L,ANDALE DISTRICT LIBRARY,,,,1340401516,328 Main St,Andale,KS,67001,-97.6298677,37.79153172,,1000,
F,COLWICH VOLUNTEER FIRE DEPARTMENT,,,,1340401466,116 N 3rd St,Colwich,KS,67030,-97.53820164,37.78354192,,1000,
H,"HECTOR RIOS OPTOMETRY, LLC",,20070645,,1340401460,136 W WICHITA AVE,COLWICH,KS,67030,-97.53698941,37.78320799,,1000,2500
S,GARDEN PLAIN HIGH,77417,,2399030329,1340401195,720 Sedgwick,Garden Plain,KS,67050,-97.68128494,37.66117878,,1000,1000
S,CLEARWATER HIGH,77376,,2399010636,1340400887,1201 E. Ross,Clearwater,KS,67026,-97.48504032,37.50323299,,1000,
F,CRC - THE VILLAGE,,,,1340400720,440 N FOURTH,Clearwater,KS,67026,-97.49496721,37.51019768,,1000,1000
F,HARBOR HOME A,,,,1340400556,434 N FOURTH ST,Clearwater,KS,67026,-97.49626744,37.50997756,,1000,1000
F,HARBOR HOME B,,,,1340400556,434 N FOURTH ST,Clearwater,KS,67026,-97.49626744,37.50997756,,1000,1000
F,CLEARWATER NURSING AND REHAB,,,,1340400520,620 E WOOD ST,Clearwater,KS,67026,-97.49900672,37.50878044,,1000,1000
H,CLEARWATER NURSING & REHABILITATION CENTER,,175454,,1340400520,620 E WOOD STREET,CLEARWATER,KS,67026,-97.49900672,37.50878044,,1000,1000
F,ENDOSCOPIC SERVICES PA,,,,1340398231,1431 BLUFFVIEW ST,Wichita,KS,67218,-97.33712353,37.71127179,,1000,5000
H,WALGREENS #5768,,19979025,,1340397859,5505 E HARRY ST,WICHITA,KS,67218,-97.27216203,37.66423209,,1000,1000
F,DERBY POLICE DEPT,,,,1340397777,229 N Baltimore Ave,Derby,KS,67037,-97.27097881,37.54520719,,1000,1000
H,EYE TO EYE PA,,1366494049,,1340396801,1105 N BUCKNER ST,DERBY,KS,67037,-97.2718789,37.55545111,,1000,1000
F,HR,,,,1340396642,3420 S. Oliver Ave.,Wichita,KS,67210,-97.27968978,37.63363193,,1000,1000
H,"ABOUT YOU PALLIATIVE CARE & HOSPICE, INC.",,171620,,1340394973,319 N DOWELL ST,WICHITA,KS,67206,-97.20650647,37.69154072,,1000,1000
S,L'OUVERTURE COMPUTER TECHNOLOGY MAGNET,,,2399039775,1340393632,1539 N Ohio,Wichita,KS,67214,-97.32444026,37.71108877,,1000,
S,BOSTIC TRADITIONAL MAGNET ELEM,77575,,2399039775,1340393274,8103 E Gilbert,Wichita,KS,67207,-97.2408178,37.67515618,,1000,
H,WALGREENS #6362,,19979019,,1340392987,333 W 13TH ST N,WICHITA,KS,67203,-97.34130195,37.70756732,,1000,1000
S,JARDINE TECHNOLOGY MIDDLE MAGNET,77590,,2399039775,1340392850,3550 Ross Parkway,Wichita,KS,67210,-97.29151797,37.63602027,,1000,1000
F,WICHITA NURSING CENTER,,,,1340392833,2840 S HILLSIDE ST,Wichita,KS,67216,-97.29204002,37.63591816,,1000,5000
S,PETERSON ELEM,77621,,2399039775,1340392136,9710 W Central,Wichita,KS,67212,-97.45417323,37.69452202,,1000,
H,GRENE VISION GROUP,,19993527,,1340391921,655 N WOODLAWN ST,WICHITA,KS,67208,-97.26263408,37.69712738,,1000,1000
H,GRENE VISION GROUP LLC,,1255326443,,1340391921,655 N WOODLAWN ST,WICHITA,KS,67208,-97.26263408,37.69712738,,1000,1000
F,TEAM VISION SURGERY CENTER EAST,,,,1340391917,6100 E CENTRAL ST,Wichita,KS,67208,-97.26645146,37.6953381,,1000,1000
G,FEDERAL LEASED BUILDING,,,,1340391904,555 N WOODLAWN ST,WICHITA,KS,67208,-97.26511233,37.69603127,,1000,1000
H,"MENTAL HEALTH ASSOCIATION OF SOUTH CENTRAL KANSAS, INC.",,1114921699,,1340391904,555 N WOODLAWN,WICHITA,KS,67208,-97.26511233,37.69603127,,1000,1000
F,CARRINGTON HOUSE CENTRAL,,,,1340391404,1432 N WACO STREET,Wichita,KS,67230,-97.34133995,37.70905057,,1000,1000
H,NV PACS 2 LLC,,1023018926,,1340391404,1432 N WACO AVE,WICHITA,KS,67203,-97.34133995,37.70905057,,1000,1000
H,KANSAS POST ACUTE MEDICAL SERVICES 1 PA,,1235666900,,1340391404,1432 N WACO AVE,WICHITA,KS,67203,-97.34133995,37.70905057,,1000,1000
F,ADVANTAGE HOSPICE CARE INC,,,,1340391403,1611 W HARRY,Wichita,KS,67213,-97.34135195,37.70841241,,1000,1000
F,REFLECTION LIVING OF HIDDEN LAKES LLC,,,,1340391235,550 CIRCLE LAKE,Wichita,KS,67209,-97.47052387,37.67473104,,1000,1000
H,INTERIM HEALTHCARE OF WICHITA INC (HOSPICE),,171576,,1340390450,9920 E HARRY STREET,WICHITA,KS,67207,-97.22268908,37.66551112,,1000,1000
H,INTERIM HEALTHCARE OF WICHITA,,177090,,1340390450,9920 E HARRY ST,WICHITA,KS,67207,-97.22268908,37.66551112,,1000,1000
H,CVS PHARMACY #10075,,19903251,,1340389958,4808 E CENTRAL AVE,WICHITA,KS,67208,-97.27998971,37.694357,,1000,1000
S,JEFFERSON ELEM,77405,,2399036386,1340389511,4615 E Orme,Wichita,KS,67218,-97.28157897,37.67676724,,1000,1000
F,TOTAL HOMECARE & HOSPICE,,,,1340388989,250 W DOUGLAS,Wichita,KS,67202,-97.34029584,37.68693026,,1000,5000
G,PAGE COURT,,,,1340388984,220 W DOUGLAS AVE,WICHITA,KS,67202,-97.34002382,37.68662723,,1000,5000
H,"WICHITA EAR CLINIC, PA",,1104025493,,1340388523,9350 E CENTRAL AVE,WICHITA,KS,67206,-97.22795651,37.694337,,1000,1000
H,KANSAS MEDICAL ASSOCIATES,,1417216508,,1340388495,9390 E CENTRAL AVE,WICHITA,KS,67206,-97.22717353,37.69441201,,1000,1000
S,MINNEHA CORE KNOWLEDGE ELEM,77570,,2399039775,1340388494,701 N Webb Road,Wichita,KS,67206,-97.22713953,37.69691026,,1000,
S,WICHITA COLLEGIATE SCHOOL,77567,,2399010016,1340388418,9115 E 13TH ST N,WICHITA,KS,67206,-97.23145196,37.70764233,,1000,2000
S,COLEMAN MIDDLE SCHOOL,,,2399039775,1340387860,1544 N Governeour,Wichita,KS,67206,-97.25255107,37.71151872,,1000,2000
H,CVS PHARMACY #10159,,19902825,,1340387612,2014 WEST 21ST AVE N,WICHITA,KS,67203,-97.36411723,37.72324099,,1000,1000
S,WICHITA CHILDREN'S HOME,,,2399039775,1340387582,810 N. Holyoke,WICHITA,KS,67203,-97.29676749,37.69872144,,1000,1000
H,ASSOCIATES IN WOMENS HEALTH PA,,1114038544,,1340387570,3232 E MURDOCK ST,WICHITA,KS,67208,-97.29637845,37.69797736,,1000,1000
H,CRAIG HOMECARE,,178103,,1340386364,727 N WACO AVE,WICHITA,KS,67203,-97.34257807,37.69670124,,1000,5000
H,"PREMIER PHYSICAL THERAPY, PA",,1114511318,,1340385840,1220 S Meridian Ave,VALLEY CENTER,KS,67147,-97.37141796,37.81643021,,1000,1000
C,WEST YMCA,,,,1340385783,6940 Newell St,Wichita,KS,67212,-97.42335615,37.69274184,See response to 1.3.1 Text Box in Initial Proposal - Volume 1,1000,1000
F,ROLLINGS HILLS HEALTH AND REHAB,,,,1340385118,1319 SEVILLE ST,Wichita,KS,67209,-97.45405122,37.66986855,,1000,1000
H,ROLLING HILLS HEALTH AND REHAB,,175253,,1340385118,1319 SEVILLE STREET,WICHITA,KS,67209,-97.45405122,37.66986855,,1000,1000
H,WALGREENS #2751,,19955733,,1340384569,13534 W MAPLE ST,WICHITA,KS,67235,-97.49791751,37.6793005,,1000,1000
S,HOLY CROSS LUTHERAN SCHOOL,77578,,,1340383769,600 N GREENWICH RD,WICHITA,KS,67206,-97.20609542,37.69691026,,1000,
C,KANSAS COMMUNITY CORRECTIONS OFFICES (18TH JUDICIAL DISTRICT COMMUNITY CORRECTIONS),,,,1340383726,905 N. Main St,Wichita,KS,67203,-97.33859067,37.69910758,See response to 1.3.1 Text Box in Initial Proposal - Volume 1,1000,1000
H,BARNEY'S PHARMACY INC,,20175087,,1340383364,3108 W CENTRAL AVE,WICHITA,KS,67203,-97.37797851,37.69550712,,1000,5000
H,WALGREENS #5793,,19981641,,1340383164,710 N WEST ST,WICHITA,KS,67203,-97.38893461,37.69551712,,1000,1000
H,IMMEDIATE MEDICAL CARE PA,,1235211699,,1340383047,4722 W KELLOGG DR,WICHITA,KS,67209,-97.39721254,37.67394796,,1000,
S,KANSAS COLLEGE OF OSTEOPATHIC MEDICINE KANSAS,,,,1340382884,217 E. Douglas Ave,Wichita,KS,67202,-97.33617343,37.68575214,,1000,5000
H,COUNTY OF SEDGWICK,,1174923056,,1340382875,350 S BROADWAY AVE,WICHITA,KS,67202,-97.33519533,37.68303097,,1000,
F,MEADOWLARK ADULT CARE HOME 5,,,,1340382819,8101 WEST MAPLE,Wichita,KS,67209,-97.43646746,37.6793675,,1000,1000
S,BROOKS MAGNET MIDDLE SCHOOL,77682,,2399039775,1340382439,3802 E 27th N,Wichita,KS,67220,-97.29135195,37.73484205,,1000,5000
S,HYDE INTL STUDIES/COMMUN ELEM MAGNET,77586,,2399039775,1340382357,210 N Oliver,Wichita,KS,67208,-97.28011283,37.68883145,,1000,5000
H,WAL-MART PHARMACY 10-1221,,20038029,,1340382123,6110 W KELLOG DR,WICHITA,KS,67209,-97.41342816,37.6753361,,1000,1000
H,SAMS PHARMACY 10-8254,,20042619,,1340382122,6200 W KELLOGG DR,WICHITA,KS,67209,-97.41534535,37.67556112,,1000,1000
S,MARSHALL MIDDLE SCHOOL,77553,,2399039775,1340381813,1510 Payne,Wichita,KS,67203,-97.35252307,37.71056162,,1000,1000
H,DILLON PHARMACY #96,,20160843,,1340381708,5500 E HARRY ST,WICHITA,KS,67218,-97.27249506,37.66595616,,1000,5000
F,MEADOWLARK ADULT CARE HOME 4,,,,1340380966,1425 LEECREST,Wichita,KS,67209,-97.46430625,37.66755632,,1000,1000
H,HECTOR RIOS OPTOMETRY LLC,,20070663,,1340380102,3040 S SENECA,WICHITA,KS,67217,-97.35195191,37.63975254,,1000,1000
H,EMERGENT CARE PLUS OF OVERLAND PARK LLC,,1003997925,,1340380091,3006 S SENECA ST,WICHITA,KS,67217,-97.35191791,37.64027669,,1000,5000
H,KANSAS DIABETES AND ENDOCRINOLOGY CENTER LLC,,1093199051,,1340379008,3161 N WEBB RD,WICHITA,KS,67226,-97.22721754,37.7413467,,1000,2500
H,CARDIO-KIDNEY VASCULAR OBL LLC,,1306161500,,1340379008,3161 N WEBB RD,WICHITA,KS,67226,-97.22721754,37.7413467,,1000,2500
H,KANSAS GASTROENTEROLOGY LLC,,1326449687,,1340379006,3121 N WEBB RD,WICHITA,KS,67226,-97.22701252,37.74058162,,1000,
H,WALMART PHARMACY 10-0592,,20037573,,1340378751,2020 N NELSON DR,DERBY,KS,67037,-97.27503432,37.56893746,,1000,1000
F,DERBY DIALYSIS CENTER,,,,1340378740,250 W RED POWELL DR,Derby,KS,67037,-97.27378919,37.56666723,,1000,1000
H,AUBURN LTC WICHITA #181,,20262123,,1340378351,5318 W CENTRAL AVE,WICHITA,KS,67212,-97.46699041,37.65996756,,1000,5000
S,DISCOVERY INTERMEDIATE SCHOOL,230707,,2399004922,1340377643,301 S Main St,Goddard,KS,67052,-97.57672349,37.65461703,,1000,1000
H,KANSAS MEDICAL CENTER LLC,,170197,,1340377477,9840 E 21ST ST N,WICHITA,KS,67206,-97.22328914,37.72342791,,1000,
F,KVC CHILDREN'S PSYCHIATRIC HOSPITAL,,,,1340377362,1507 West 21st Street North,Wichita,KS,67203,-97.35673449,37.72207787,,1000,5000
S,HOLY SPIRIT CATHOLIC SCHOOL,16034133,,2399003529,1340377168,18218 W US HIGHWAY 54,GODDARD,KS,67052,-97.55176799,37.66610128,,1000,1000
H,"SUMMIT CARE, INC.",,1417417304,,1340376977,1400 S 183RD ST W,GODDARD,KS,67052,-97.55245106,37.66798236,,1000,1000
F,ASCENSION VIA CHRISTI - ST. JOSEPH CAMPUS,,,,1340376700,3600 E Harry,Wichita,KS,67218,-97.33718453,37.71490206,,1000,5000
H,"KANSAS NEPHROLOGY PHYSICIANS, P.A.",,1043961246,,1340376700,3600 E HARRY ST,WICHITA,KS,67218,-97.33718453,37.71490206,,1000,5000
H,HOSPITALIST MEDICINE PHYSICIANS OF TEXAS PLLC,,1174053698,,1340376700,3600 E HARRY ST,WICHITA,KS,67218,-97.33718453,37.71490206,,1000,5000
H,KANSAS IMAGING CONSULTANTS PA,,1245457365,,1340376700,3600 E HARRY ST,WICHITA,KS,67218,-97.33718453,37.71490206,,1000,5000
H,CEP AMERICA - KANSAS LLC,,1316915945,,1340376700,3600 E HARRY ST,WICHITA,KS,67218,-97.33718453,37.71490206,,1000,5000
H,"WICHITA NEPHROLOGY GROUP, PA",,1316990781,,1340376700,3600 E HARRY ST,WICHITA,KS,67218,-97.33718453,37.71490206,,1000,5000
H,"SOUTHCENTRAL PATHOLOGY LABORATORY, PA",,1376869651,,1340376700,3600 E HARRY,WICHITA,KS,67201,-97.33718453,37.71490206,,1000,5000
F,POLICE DEPT PATROL EAST DIV,,,,1340376234,350 S Edgemoor St,Wichita,KS,67218,-97.27067888,37.68147171,,1000,1000
F,DERBY FIRE AND RESCUE,,,,1340375782,715 E Madison AVE,Derby,KS,67037,-97.26402822,37.54591016,,1000,1000
H,ASCENSION VIA CHRISTI HOSPITALS WICHITA INC,,1396973848,,1340375714,817 N EMPORIA ST,WICHITA,KS,67214,-97.33390611,37.69807647,,1000,1000
F,LIFE CARE CENTER OF WICHITA,,,,1340374311,622 N EDGEMOOR ST,Wichita,KS,67208,-97.27036785,37.69650122,,1000,
H,LIFE CARE CENTER OF WICHITA,,175407,,1340374311,622 N EDGEMOOR STREET,WICHITA,KS,67208,-97.27036785,37.69650122,,1000,
H,DANDURAND PHARMACY INC,,20218071,,1340374310,625 N CARRIAGE PKWY,WICHITA,KS,67208,-97.26940176,37.69649121,,1000,1000
H,FIRST CARE,,20272053,,1340374310,625 N CARRIAGE PKWY,WICHITA,KS,67208,-97.26940176,37.69649121,,1000,1000
H,ASCENSION VIA CHRISTI REHABILITATION HOSPITAL INC,,1023689882,,1340374310,625 N CARRIAGE PKWY,WICHITA,KS,67208,-97.26940176,37.69649121,,1000,1000
H,INNOVATIVE PHYSICAL THERAPY,,1215282371,,1340374308,545 N CARRIAGE PKWY,WICHITA,KS,67208,-97.26995671,37.69500717,,1000,1000
H,WALGREENS #2750,,19951797,,1340374059,5555 S BROADWAY AVE,WICHITA,KS,67216,-97.3348122,37.59414108,,1000,1000
S,BLESSED SACRAMENT CATHOLIC SCHOOL,77584,,,1340373563,125 N QUENTIN ST,WICHITA,KS,67208,-97.29135195,37.68703237,,1000,1000
S,WOODLAND HEALTH / WELLNESS MAGNET ELEM,77554,,2399039775,1340373268,1705 Salina,Wichita,KS,67203,-97.35240606,37.71400007,,1000,
S,ANNOOR ISLAMIC SCHOOL,16049764,,,1340373262,6655 E 34TH ST N,WICHITA,KS,67226,-97.25869568,37.74618028,,1000,1000
H,SAMS PHARMACY 10-6418,,20042565,,1340373249,3415 N ROCK RD,WICHITA,KS,67226,-97.24757357,37.74606227,,1000,
H,CHILD AND FAMILY EYECARE PA,,1285739441,,1340373203,746 N MAIZE RD,WICHITA,KS,67212,-97.46230105,37.69517718,,1000,1000
C,JOSEPH F. HERNDON II VFW POST 7253,,,,1340372949,101 S Baltimore Ave,Derby,KS,67037,-97.27044086,37.54311298,See response to 1.3.1 Text Box in Initial Proposal - Volume 1,1000,1000
S,THE LEARNING CENTER,17028757,,2399031532,1340372716,426 S. Meridian Ave.,Valley Center,KS,67147,-97.37140196,37.82812148,,1000,1000
F,VIA CHRISTI REHABILITATION CTR INC,,,,1340372596,1151 N ROCK RD,Wichita,KS,67206,-97.24602842,37.70388095,,1000,1000
H,"ASCENSION VIA CHRISTI REHABILITATION HOSPITAL, INC",,173028,,1340372596,1151 N ROCK ROAD,WICHITA,KS,67206,-97.24602842,37.70388095,,1000,1000
H,"KANSAS NEPHROLOGY PHYSICIANS, P.A.",,1043404940,,1340372596,1151 N ROCK RD,WICHITA,KS,67206,-97.24602842,37.70388095,,1000,1000
H,ASCENSION VIA CHRISTI REHABILITATION HOSPITAL INC,,1154735611,,1340372596,1151 N ROCK RD,WICHITA,KS,67206,-97.24602842,37.70388095,,1000,1000
H,KANSAS IMAGING CONSULTANTS PA,,1053393199,,1340372278,13715 E PINNACLE DR,WICHITA,KS,67230,-97.17860668,37.69945651,,1000,1000
H,KANSAS IMAGING CONSULTANTS PA,,1053756361,,1340371885,1011 N PRESERVE ST,WICHITA,KS,67206,-97.19203902,37.70246081,,1000,1000
H,HEALTHBACK HOME HEALTH OF KANSAS INC,,178078,,1340371125,1117 S ROCK RD,WICHITA,KS,67207,-97.24569538,37.66815648,,1000,1000
F,MEDICALODGES WICHITA,,,,1340370970,2280 S MINNEAPOLIS,Wichita,KS,67211,-97.31442826,37.65259682,,1000,1000
H,MEDICALODGES WICHITA,,175008,,1340370970,2280 S MINNEAPOLIS AVENUE,WICHITA,KS,67211,-97.31442826,37.65259682,,1000,1000
S,MAIZE CENTRAL ELEMENTARY,77457,,2399017989,1340370753,304 W. Academy Ave,Maize,KS,67101,-97.47129594,37.77404607,,1000,
C,KEEVER-WIRE POST 6957,,,,1340370671,7507 S. Broadway,Haysville,KS,67060,-97.33454027,37.55844841,See response to 1.3.1 Text Box in Initial Proposal - Volume 1,1000,1000
F,DISTRIBUTION CENTER,,,,1340369862,3333 S. Oliver,Wichita,KS,67210,-97.24367818,37.67583115,,1000,1000
H,WESLEY PHYSICIANS MEDICAL SPECIALTIES LLC,,1205142296,,1340368582,850 N HILLSIDE ST,WICHITA,KS,67214,-97.29822864,37.69888645,,1000,1000
H,WICHITA OPTOMETRY PA,,20212011,,1340367585,2635 W DOUGLAS AVE,WICHITA,KS,67213,-97.37346216,37.68348291,,1000,5000
H,"WICHITA OPTOMETRY, P.A.",,1154805737,,1340367585,2635 W DOUGLAS AVE,WICHITA,KS,67213,-97.37346216,37.68348291,,1000,5000
H,HEART & SOUL HOSPICE,,171597,,1340367084,2414 NORTH WOODLAWN BLVD,WICHITA,KS,67220,-97.26046286,37.72723239,,1000,1000
H,SELECT PHYSICAL THERAPY HOLDINGS INC,,1013955053,,1340367083,2424 N WOODLAWN BLVD,WICHITA,KS,67220,-97.26142396,37.7273673,,1000,1000
H,"KANSAS ORTHOPAEDIC CENTER, PA",,1417933375,,1340367079,2450 N WOODLAWN BLVD,WICHITA,KS,67220,-97.2618289,37.72845041,,1000,1000
F,TEAM VISION SURGERY CENTER WEST,,,,1340367005,834 N SOCORA,Wichita,KS,67212,-97.43727854,37.69652722,,1000,5000
H,GREAT PLAINS DIABETES RESEARCH INC,,1295492908,,1340367005,834 N SOCORA,WICHITA,KS,67212,-97.43727854,37.69652722,,1000,5000
F,RENAL CARE GROUP - WICHITA WEST,,,,1340367000,750 N SOCORA,Wichita,KS,67212,-97.4358343,37.69587115,,1000,1000
H,RENAL CARE GROUP - WICHITA WEST,,172540,,1340367000,750 N Socora,WICHITA,KS,67212,-97.4358343,37.69587115,,1000,1000
H,"KANSAS NEPHROLOGY PHYSICIANS, P.A.",,1306966965,,1340367000,750 N SOCORA ST,WICHITA,KS,67212,-97.4358343,37.69587115,,1000,1000
S,BLACK TRADITIONAL MAGNET ELEM,77558,,2399039775,1340366612,1045 High,Wichita,KS,67203,-97.3848402,37.70302897,,1000,
C,RICHARD A. DEVORE SOUTH YMCA,,,,1340365647,3405 S Meridian Ave,Wichita,KS,67217,-97.37914573,37.63065763,See response to 1.3.1 Text Box in Initial Proposal - Volume 1,1000,1000
L,WICHITA PUBLIC LIBRARY,137924,,2399009554,1340365638,3447 S. Meridian,Wichita,KS,67217,-97.37293401,37.63181775,,1000,1000
H,"SERENE PALLIATIVE CARE & HOSPICE, INC.",,171614,,1340365167,5025 E KELLOGG DR,WICHITA,KS,67218,-97.27754057,37.67871244,,1000,1000
H,CODY L HOSS OD LLC,,20108829,,1340364821,1425 W GRAND AVE,HAYSVILLE,KS,67060,-97.34823964,37.63515018,,1000,1000
S,PRICE-HARRIS COMMUNICATIONS MAGNET,77579,,2399039775,1340364756,706 N Armour Dr,Wichita,KS,67206,-97.25450127,37.69985755,,1000,
S,HAYSVILLE MIDDLE SCHOOL,77434,,2399016220,1340364581,900 W Grand,Haysville,KS,67060,-97.36297801,37.56552712,,1000,1000
S,PAYNE ELEM,77954,,2399039775,1340364503,1601 S Edwards,Wichita,KS,67213,-97.37393911,37.66523019,,1000,
H,DILLON'S PHARMACY #072,,20160561,,1340364053,10515 W CENTRAL AVE,WICHITA,KS,67212,-97.46457327,37.69274284,,1000,1000
H,LITTLE CLINIC OF KANSAS LLC,,1396497335,,1340364053,10515 W CENTRAL AVE,WICHITA,KS,67212,-97.46457327,37.69274284,,1000,1000
H,WALGREENS #6170,,19944717,,1340364047,555 N MAIZE RD,WICHITA,KS,67212,-97.46353917,37.69159072,,1000,1000
F,PARK WEST PLAZA,,,,1340364043,515 N MAIZE RD,Wichita,KS,67212,-97.46400122,37.69067763,,1000,1000
F,REFLECTIONS AT PARK WEST PLAZA,,,,1340364043,515 N MAIZE RD,Wichita,KS,67212,-97.46400122,37.69067763,,1000,1000
F,CHENEY GOLDEN AGE HOME,,,,1340363680,724 N Main St,Cheney,KS,67025,-97.26950677,37.66699026,,1000,1000
H,CHENEY GOLDEN AGE HOME,,175399,,1340363680,724 N MAIN,CHENEY,KS,67025,-97.26950677,37.66699026,,1000,1000
F,AVALON ADULT CARE FACILITY & ADULT DAY CARE,,,,1340363214,5662 COE,Wichita,KS,67208,-97.26948476,37.70442201,,1000,1000
S,MAIZE SOUTH MIDDLE SCHOOL,77456,,2399017989,1340362953,3403 N Tyler Rd,Wichita,KS,67205,-97.44884564,37.74954114,,1000,
S,MAIZE SOUTH HIGH SCHOOL,16059911,,2399017989,1340362953,3701 N. Tyler Road,Wichita,KS,67205,-97.44884564,37.74954114,,1000,
S,MAIZE SOUTH ELEMENTARY,16074369,,2399017989,1340362953,3404 N Maize Road,Wichita,KS,67205,-97.44884564,37.74954114,,1000,
S,MAIZE SOUTH INTERMEDIATE SCHOOL,17027434,,2399017989,1340362953,9701 W 37th Street N,Wichita,KS,67205,-97.44884564,37.74954114,,1000,
H,IMMEDIATE MEDICAL CARE PA,,1235211699,,1340362809,3560 N MAIZE RD,WICHITA,KS,67205,-97.46197391,37.74745831,,1000,1000
H,MY HOME CARE LLC,,178127,,1340361547,1037 S BROADWAY AVE,WICHITA,KS,67211,-97.33575139,37.6733689,,1000,1000
L,VALLEY CENTER PUBLIC LIBRARY,,,,1340361322,314 E. Clay,Valley Center,KS,67147,-97.36892861,37.82904657,,1000,
F,MARY MARTIN'S RETIREMENT,,,,1340361137,1418 PLEASANTVIEW DR,Wichita,KS,67204,-97.37731255,37.71047761,,1000,1000
S,ALLISON TRADITIONAL MAGNET MIDDLE,77630,,2399039775,1340360927,221 S Seneca,Wichita,KS,67213,-97.35374019,37.68247881,,1000,1000
G,LUX,,,,1340359117,120 E 1ST ST N,WICHITA,KS,67202,-97.33724554,37.68825149,,1000,1000
H,RIVERCROSS HOSPICE LLC,,171559,,1340358498,251 S WHITTIER,WICHITA,KS,67207,-97.25341716,37.68397696,,1000,1000
F,ROCK SURGERY CENTER,,,,1340358164,1101 N ROCK RD,Derby,KS,67037,-97.24570139,37.55667123,,1000,1000
H,FAMILY MEDCENTERS PA,,1003825720,,1340358164,1101 N ROCK RD,DERBY,KS,67037,-97.24570139,37.55667123,,1000,1000
F,ARBOR HOME - ROCKWOOD,,,,1340358084,6807 E ROCKWOOD,Wichita,KS,67206,-97.25699541,37.69043061,,1000,5000
S,WEST ELEM,78044,,2399025367,1340357138,501 N Sheridan,Valley Center,KS,67147,-97.38158997,37.83781135,,1000,
H,WEST WICHITA FAMILY OPTOMETRISTS,,1043659238,,1340355702,1202 W MAPLE ST,WICHITA,KS,67213,-97.35436225,37.68076264,,1000,
S,HAMILTON MIDDLE SCHOOL,77599,,2399039775,1340353990,1407 S Broadway,Wichita,KS,67211,-97.33607842,37.66706737,,1000,
S,DERBY HILLS ELEM,77398,,2399010679,1340353590,2230 North Woodlawn,Derby,KS,67037,-97.26410623,37.57090666,,1000,
H,"PREMIER HOSPITALISTS OF KANSAS, LLC",,1124054580,,1340353407,7373 E 29TH ST N,WICHITA,KS,67226,-97.25012383,37.73543111,,1000,1000
F,LARKSFIELD PLACE,,,,1340353404,2828 N GOVERNEOUR ST,Wichita,KS,67226,-97.25044086,37.73512218,,1000,1000
H,LARKSFIELD PLACE,,175181,,1340353404,2828 N. GOVERNEOUR,WICHITA,KS,67226,-97.25044086,37.73512218,,1000,1000
F,COMFORT CARE HOMES INC #6504,,,,1340353115,6504 ONEIDA,Wichita,KS,67206,-97.2608898,37.70223189,,1000,5000
H,HUNTER HEALTH CLINIC INC,,1306917810,,1340352541,935 N MARKET ST,WICHITA,KS,67214,-97.33722854,37.70009067,,1000,1000
F,SEDGWICK COUNTY EMERGENCY COMMUNICATIONS,,,,1340352525,714 N Main St,Wichita,KS,67203,-97.3378015,37.69664123,,1000,5000
H,DILLIONS PHARMACY #12,,20161077,,1340352428,9450 E HARRY ST,WICHITA,KS,67207,-97.22735655,37.66588115,,1000,1000
C,THE INTERNATIONAL RESCUE COMMITTEE (IRC),,,,1340352248,420 S Emporia St,Wichita,KS,67202,-97.33250107,37.68175774,See response to 1.3.1 Text Box in Initial Proposal - Volume 1,1000,1000
S,LIFE PREPARATORY ACADEMY,,,,1340351885,3841 N MERIDIAN CIR,WICHITA,KS,67204,-97.37290601,37.75292086,,1000,1000
S,O K ELEM,77548,,2399039775,1340351596,1607 N West,Wichita,KS,67203,-97.3908128,37.71250782,,1000,1000
H,NATIONAL SEATING & MOBILITY INC,,20225727,,1340351264,1635 E 37TH ST N,WICHITA,KS,67219,-97.31872869,37.75165673,,1000,
H,NOVACARE OUTPATIENT REHABILITATION INC,,1417953365,,1340350690,3555 E DOUGLAS AVE,WICHITA,KS,67218,-97.29470129,37.68620729,,1000,1000
H,DILLION PHARMACY #34,,20160873,,1340350624,3932 W 13TH ST N,WICHITA,KS,67203,-97.31921774,37.71116678,,1000,1000
H,WICHITA OPTOMETRY P.A.,,20212005,,1340350327,2330 N AMIDON AVE,WICHITA,KS,67204,-97.36268908,37.724321,,1000,1000
H,"WICHITA OPTOMETRY, P.A.",,1326411802,,1340350327,2330 N AMIDON AVE,WICHITA,KS,67204,-97.36268908,37.724321,,1000,1000
H,DILLON'S PHARMACY #089,,20160861,,1340350322,1910 W 21ST ST N,WICHITA,KS,67203,-97.36103992,37.72361093,,1000,
H,"CARITAS CENTER, INC",,175534,,1340349850,1400 S SHERIDEN ST,WICHITA,KS,67213,-97.37904572,37.66896146,,1000,1000
S,NEWMAN UNIVERSITY,,,,1340349849,3100 McCormick Ave,Wichita,KS,67213,-97.37837369,37.67352254,,1000,
G,FEDERAL LEASED BUILDING,,,,1340349347,1712 N NELSON DR,DERBY,KS,67037,-97.27564538,37.56407107,,1000,1000
F,PLANT 2,,,,1340349201,3801 S. Oliver St.,Wichita,KS,67210,-97.28388414,37.62242843,,1000,
F,SPIRIT/NIAR NDPC,,,,1340349201,3801 S. Oliver St,Wichita,KS,67210,-97.28388414,37.62242843,,1000,
F,STRUT NACELLE EAST,,,,1340349201,3801 S. Oliver St,Wichita,KS,67210,-97.28388414,37.62242843,,1000,
F,WAREHOUSE 3,,,,1340349201,3801 S. Oliver,Wichita,KS,67210,-97.28388414,37.62242843,,1000,
H,DILLON PHARMACY 92,,20162295,,1340348348,640 N WEST ST,WICHITA,KS,67203,-97.38816763,37.69418108,,1000,
F,GDLC,,,,1340347382,1101 N River Blvd,Wichita,KS,67210,-97.35803962,37.7033269,,1000,1000
H,BROADWAY HOME MEDICAL,,20241423,,1340346547,808 S HILLSIDE,WICHITA,KS,67211,-97.29850167,37.67348191,,1000,5000
S,EAST HIGH,77594,,2399039775,1340346412,2301 E Douglas,Wichita,KS,67211,-97.30930675,37.68487605,,1000,1000
G,CAMBRIDGE PLAZA,,,,1340346023,2020 N WEBB RD,WICHITA,KS,67206,-97.22565638,37.71997756,,1000,1000
H,COUNTY OF SEDGWICK,,1053849091,,1340345823,8901 E ORME ST,WICHITA,KS,67207,-97.23421724,37.67553612,,1000,1000
S,LEVY SP ED CENTER,,,2399039775,1340344701,400 N Woodchuck,Wichita,KS,67212,-97.43416723,37.68888145,,1000,
H,RON J MAREK DO P A,,1073834271,,1340344104,1901 N MAIZE RD,WICHITA,KS,67212,-97.46329514,37.71763633,,1000,1000
H,CORE REHAB LLC,,1265530182,,1340343826,425 E 61ST ST N,PARK CITY,KS,67219,-97.33405122,37.79509817,,1000,1000
F,SEDGWICK PLAZA,,,,1340343789,2455 N WOODLAWN ST,Wichita,KS,67220,-97.26311213,37.72815748,,1000,1000
H,LEGACY HEALTHCARE SERVICES INC,,1366684516,,1340343789,2455 N WOODLAWN BLVD,WICHITA,KS,67220,-97.26311213,37.72815748,,1000,1000
L,DERBY PUBLIC LIBRARY,137845,,,1340343293,1600 E. Walnut Grove,Derby,KS,67037,-97.24698441,37.55123879,,1000,1000
S,DERBY VIRTUAL SCHOOL,,,2399010679,1340343292,1550 E Walnut Grove Road,Derby,KS,67037,-97.24958977,37.55169773,,1000,1000
S,TANGLEWOOD ELEM,77396,,2399010679,1340343292,830 Ridgecrest Rd,Derby,KS,67037,-97.24958977,37.55169773,,1000,1000
H,COMMUNITY WALGREENS PHARMACY 16517,,19972029,,1340343185,803 N BROADWAY AVE,WICHITA,KS,67214,-97.33614043,37.69776234,,1000,1000
H,INFUSION LLC,,20175567,,1340343058,1909 E CENTRAL AVE,WICHITA,KS,67214,-97.31353917,37.6933609,,1000,1000
S,ENDERS STEM AND LEADERSHIP MAGNET,,,2399039775,1340342893,3030 S Osage,Wichita,KS,67217,-97.34471229,37.64041761,,1000,1000
S,CHENEY HIGH,77370,,2399013465,1340342149,100 W. 6th,Cheney,KS,67025,-97.31354017,37.72745231,,1000,5000
S,CHENEY ELEM,77371,,2399013465,1340342149,100 W. 6th,Cheney,KS,67025,-97.31354017,37.72745231,,1000,5000
S,CHENEY MIDDLE SCHOOL 6-8,77373,,2399013465,1340342149,100 W. 6th,Cheney,KS,67025,-97.31354017,37.72745231,,1000,5000
G,PEACE OFFICERS' STANDARDS & TRAINING KANSAS COMMISSION,,,,1340342070,1999 N Amidon,Wichita,KS,67203,-97.3638011,37.71923159,,1000,5000
H,COUNTY OF SEDGWICK,,1003584244,,1340342069,1919 N AMIDON AVE,WICHITA,KS,67203,-97.36376219,37.71822849,,1000,5000
C,WICHITA WORKFORCE CENTER,,,,1340342051,2021 N. Amidon,Wichita,KS,67203,-97.3648282,37.72041061,See response to 1.3.1 Text Box in Initial Proposal - Volume 1,1000,5000
F,ODYSSEY HEALTHCARE OF WICHITA,,,,1340342010,125 N MARKET STREET,Wichita,KS,67202,-97.33723954,37.68701037,,1000,2000
F,CYPRESS SPRINGS OF WICHITA,,,,1340341844,1859 N. Webb Rd,Wichita,KS,67206,-97.22868468,37.71647221,,1000,1000
H,GRENE VISION GROUP,,19993539,,1340341841,1851 N WEBB RD,WICHITA,KS,67206,-97.22720154,37.71690726,,1000,
H,STEVEN A KUHL OD LLC,,1154349322,,1340341841,1851 N WEBB RD,WICHITA,KS,67206,-97.22720154,37.71690726,,1000,
H,AFFILIATED FAMILY COUNSELORS LLC,,1326096322,,1340341835,1855 N WEBB RD,WICHITA,KS,67206,-97.22795151,37.71760233,,1000,
F,PLASTIC SURGERY CENTER,,,,1340341834,1861 NORTH WEBB ROAD,Wichita,KS,67206,-97.22849066,37.71748131,,1000,
H,PLASTIC SURGERY CENTER PA,,1134165509,,1340341834,1861 N WEBB RD,WICHITA,KS,67206,-97.22849066,37.71748131,,1000,
H,MID-AMERICA ORTHOPEDICS LLC,,1013994979,,1340341803,1923 N WEBB RD,WICHITA,KS,67206,-97.22894561,37.71860143,,1000,
H,MID-AMERICA ORTHOPEDICS LLC,,1427104926,,1340341801,1927 N WEBB RD,WICHITA,KS,67206,-97.22909072,37.71803147,,1000,1000
H,WICHITA DERMATOLOGY LLC,,1346478054,,1340341799,1911 N WEBB RD,WICHITA,KS,67206,-97.22701252,37.71849741,,1000,
H,ARTHRITIS AND RHEUMATOLOGY CLINICS OF KANSAS LLC,,1336145804,,1340341797,1921 N WEBB RD,WICHITA,KS,67206,-97.22796751,37.71791736,,1000,
H,CVS PHARMACY #17062,,19902897,,1340341404,2727 N MAIZE RD,WICHITA,KS,67205,-97.46541236,37.73259182,,1000,1000
F,VIA CHRISTI VILLAGE - GEORGETOWN,,,,1340340497,1655 GEORGETOWN ST,Wichita,KS,67218,-97.28613943,37.66214088,,1000,1000
H,PHOENIX PHYSICAL THERAPY LLC,,1376110833,,1340339973,12627 E CENTRAL AVE,WICHITA,KS,67206,-97.19146296,37.69287885,,1000,1000
F,WICHITA POLICE DEPT,,,,1340339875,1243 N Market St,Wichita,KS,67214,-97.33731755,37.7053701,,1000,1000
S,HORACE MANN DUAL LANGUAGE MAGNET,77637,,2399039775,1340339875,1243 N Market,Wichita,KS,67214,-97.33731755,37.7053701,,1000,1000
H,NEW VISION OPTOMETRY PA,,1013989458,,1340339552,8113 E KELLOGG DR,WICHITA,KS,67207,-97.24121794,37.67775034,,1000,1000
C,EAST YMCA,,,,1340338827,9333 E. Douglas Ave,Wichita,KS,67207,-97.22914573,37.68555112,See response to 1.3.1 Text Box in Initial Proposal - Volume 1,1000,1000
H,DOERKSEN EYE CLINIC,,20275455,,1340338192,7570 W 21ST N,WICHITA,KS,67205,-97.43222304,37.72366193,,1000,1000
H,QUINNESSENTIAL HEALTHCARE,,1144273772,,1340338192,7570 W 21ST ST N,WICHITA,KS,67205,-97.43222304,37.72366193,,1000,1000
H,ELITE SPORTS CHIROPRACTIC LLC,,1174899934,,1340338192,7570 W 21ST ST N,WICHITA,KS,67205,-97.43222304,37.72366193,,1000,1000
H,WICHITA UROLOGY GROUP PA,,1427050079,,1340338192,7570 W 21ST ST N,WICHITA,KS,67205,-97.43222304,37.72366193,,1000,1000
H,"PREMIER PHYSICAL THERAPY, PA",,1093852907,,1340338182,7340 W 21ST ST N,WICHITA,KS,67205,-97.42791751,37.72568613,,1000,1000
S,BEECH ELEM,77577,,2399039775,1340337714,1830 S Cypress,Wichita,KS,67207,-97.23092881,37.66013668,,1000,1000
S,MEAD MIDDLE SCHOOL,77607,,2399039775,1340337107,2601 E Skinner,Wichita,KS,67211,-97.30567338,37.65826249,,1000,
H,BAALMAN EYE CARE CENTER,,20071449,,1340336800,982 N TYLER RD,WICHITA,KS,67212,-97.44372819,37.70023669,,1000,1000
H,RESOLUTIONS INDIVIDUAL COUPLE AND FAMILY THERAPY LLC,,1265450886,,1340336800,982 N TYLER RD,WICHITA,KS,67212,-97.44372819,37.70023669,,1000,1000
H,"HOLMBERG WELLNESS GROUP, LLC",,1134294549,,1340336576,5846 W 21ST ST N,WICHITA,KS,67205,-97.41048486,37.72403207,,1000,1000
H,"INFECTIOUS DISEASE CONSULTANTS, P.A.",,1013344613,,1340336074,310 S HILLSIDE ST,WICHITA,KS,67211,-97.29856267,37.6823988,,1000,1000
G,FEDERAL LEASED BUILDING,,,,1340336039,3207 N CYPRESS ST,WICHITA,KS,67226,-97.2348122,37.74141171,,1000,1000
S,"HEARTSPING, INC.",77677,,,1340336036,8700 E 29TH ST N,WICHITA,KS,67226,-97.23500632,37.7393505,,1000,2500
G,FEDERAL LEASED BUILDING,,,,1340336002,550 W DOUGLAS AVE,WICHITA,KS,67203,-97.34625144,37.68479804,,1000,1000
H,DILLON PHARMACY #81,,20162301,,1340335562,13415 MAPLE ST,WICHITA,KS,67235,-97.49694041,37.67699826,,1000,1000
H,WICHITA OPTOMETRY P.A.,,20211981,,1340335373,12111 W MAPLE ST,WICHITA,KS,67235,-97.48144096,37.67810248,,1000,1000
F,THE HOMESTEAD OF WICHITA,,,,1340335365,12221 W MAPLE,Wichita,KS,67235,-97.48274009,37.67817248,,1000,1000
H,"ADVANCED MOBILE HEALTHCARE, LLC",,1235190919,,1340335082,933 N TOPEKA ST,WICHITA,KS,67214,-97.33459527,37.69952652,,1000,1000
F,WICHITA DIALYSIS CENTER,,,,1340335066,909 N TOPEKA,Wichita,KS,67214,-97.33469028,37.69895146,,1000,1000
H,DAVITA WICHITA DIALYSIS CENTER,,172503,,1340335066,909 N. Topeka St,WICHITA,KS,67214,-97.33469028,37.69895146,,1000,1000
H,"WICHITA NEPHROLOGY GROUP, PA",,1104025949,,1340335066,909 N TOPEKA,WICHITA,KS,67214,-97.33469028,37.69895146,,1000,1000
H,VIGILIAS LLC,,1114983988,,1340334734,425 N BELMONT AVE,WICHITA,KS,67208,-97.28665148,37.69269883,,1000,5000
F,THE CENTER FOR SAME DAY SURGERY,,,,1340334003,818 NORTH EMPORIA STREET,Wichita,KS,67214,-97.33261208,37.69827749,,1000,1000
H,"WICHITA NEPHROLOGY GROUP, PA",,1023006632,,1340334003,818 N EMPORIA,WICHITA,KS,67214,-97.33261208,37.69827749,,1000,1000
H,CANCER CENTER OF KANSAS.P.A.,,1073730867,,1340334003,818 N EMPORIA ST,WICHITA,KS,67214,-97.33261208,37.69827749,,1000,1000
H,WICHITA SURGICAL SPECIALISTS PA,,1104054642,,1340334003,818 N EMPORIA ST,WICHITA,KS,67214,-97.33261208,37.69827749,,1000,1000
H,KANSAS IMAGING CONSULTANTS PA,,1154438968,,1340334003,818 N EMPORIA ST,WICHITA,KS,67214,-97.33261208,37.69827749,,1000,1000
H,ASCENSION VIA CHRISTI HOSPITALS WICHITA INC,,1316358492,,1340334003,818 N EMPORIA ST,WICHITA,KS,67214,-97.33261208,37.69827749,,1000,1000
H,WICHITA AMBULATORY ANESTHESIA PROVIDERS LLC,,1376183954,,1340334003,818 N EMPORIA ST,WICHITA,KS,67214,-97.33261208,37.69827749,,1000,1000
S,CHALLENGER INTERMEDIATE SCHOOL,77421,,2399004922,1340333887,325 N Walnut,Goddard,KS,67052,-97.58139099,37.65933112,,1000,
F,MEDICALODGES GODDARD,,,,1340333881,501 EASY ST,Goddard,KS,67052,-97.582823,37.66117778,,1000,1000
H,MEDICALODGES GODDARD,,175294,,1340333881,501 EASY STREET,GODDARD,KS,67052,-97.582823,37.66117778,,1000,1000
H,MOSAIC MENTAL WELLNESS LLC,,1033497557,,1340333568,801 E DOUGLAS AVE,WICHITA,KS,67202,-97.32849066,37.68570714,,1000,2000
H,"GLUTALITY PROVIDER GROUP OF KANSAS, PA.",,1043297252,,1340333568,801 E DOUGLAS AVE,WICHITA,KS,67202,-97.32849066,37.68570714,,1000,2000
H,PSYCHIATRIC HEALTH CORPORATION,,1093745952,,1340333568,801 E DOUGLAS AVE,WICHITA,KS,67202,-97.32849066,37.68570714,,1000,2000
F,ASCENSION VIA CHRISTI SURGERY CENTER,,,,1340331954,1947 FOUNDERS CIRCLE,Wichita,KS,67206,-97.19761258,37.71848141,,1000,
H,"ASCENSION MEDICAL GROUP VIA CHRISTI, PA",,1023027133,,1340331954,1947 N FOUNDERS CIR,WICHITA,KS,67206,-97.19761258,37.71848141,,1000,
H,KANSAS IMAGING CONSULTANTS PA,,1053756361,,1340331954,1947 N FOUNDERS CIR,WICHITA,KS,67206,-97.19761258,37.71848141,,1000,
H,ASCENSION VIA CHRISTI REHABILITATION HOSPITAL INC,,1396722278,,1340331954,1947 N FOUNDERS CIR,WICHITA,KS,67206,-97.19761258,37.71848141,,1000,
H,WICHITA PHYSICAL THERAPY GROUP LLC,,1326411802,,1340331941,2146 N COLLECTIVE LN,WICHITA,KS,67206,-97.19662848,37.72187075,,1000,
S,TRINITY ACADEMY,16055243,,2399028199,1340331930,12345 E 21ST ST N,WICHITA,KS,67206,-97.1948062,37.72175674,,1000,
H,NEUROLOGY CONSULTANTS OF KANSAS LLC,,1093200644,,1340331929,2135 N COLLECTIVE LN,WICHITA,KS,67206,-97.19819563,37.72147071,,1000,1000
S,ST FRANCIS OF ASSISI SCHOOL,77614,,2399003515,1340331350,853 N SOCORA ST,WICHITA,KS,67212,-97.44000182,37.69700737,,1000,5000
F,GALICHIA HEART HOSPITAL LLC,,,,1340330658,2610 N WOODLAWN,Wichita,KS,67220,-97.26061288,37.73118778,,1000,
F,WESLEY MEDICAL CENTER - WOODLAWN CAMPUS,,,,1340330658,2610 North Woodlawn,Wichita,KS,67220,-97.26061288,37.73118778,,1000,
H,FORWARD PATHOLOGY SOLUTIONS WICHITA LLC,,1023093895,,1340330658,2610 N WOODLAWN BLVD,WICHITA,KS,67220,-97.26061288,37.73118778,,1000,
H,"KANSAS NEPHROLOGY PHYSICIANS, P.A.",,1043404940,,1340330658,2610 N WOODLAWN BLVD,WICHITA,KS,67220,-97.26061288,37.73118778,,1000,
H,WESLEY PHYSICIANS MEDICAL SPECIALTIES LLC,,1073518825,,1340330658,2600 N WOODLAWN BLVD,WICHITA,KS,67220,-97.26061288,37.73118778,,1000,
H,CARDIOVASCULAR CARE PA,,1164493201,,1340330658,2610 N WOODLAWN BLVD,WICHITA,KS,67220,-97.26061288,37.73118778,,1000,
H,CAREPOINT EMERGENCY MEDICINE KANSAS LLC,,1275063307,,1340330658,2610 N WOODLAWN,WICHITA,KS,67220,-97.26061288,37.73118778,,1000,
H,"WICHITA NEPHROLOGY GROUP, PA",,1386282655,,1340330658,2610 N WOODLAWN BLVD,WICHITA,KS,67220,-97.26061288,37.73118778,,1000,
H,CAREPOINT HOSPITAL MEDICINE KANSAS LLC,,1407860422,,1340330658,2610 N WOODLAWN ST,WICHITA,KS,67220,-97.26061288,37.73118778,,1000,
S,SOUTH HIGH,77664,,2399039775,1340330188,701 W 33rd S,Wichita,KS,67217,-97.34676749,37.6323278,,1000,1000
H,ADVANCED PT LLC,,1033854203,,1340329374,1725 E DOUGLAS AVE,WICHITA,KS,67211,-97.31650147,37.68598116,,1000,1000
H,WALGREENS #5769,,19978995,,1340329230,3333 E CENTRAL AVE,WICHITA,KS,67208,-97.29820664,37.69314698,,1000,1000
F,EAST WICHITA DIALYSIS CENTER,,,,1340329224,320 N HILLSIDE,Wichita,KS,67214,-97.29862368,37.6913617,,1000,1000
H,DAVITA EAST WICHITA DIALYSIS CENTER,,172519,,1340329224,320 N. Hillside St,Wichita,KS,67214,-97.29862368,37.6913617,,1000,1000
H,"WICHITA NEPHROLOGY GROUP, PA",,1316990781,,1340329224,320 N HILLSIDE,WICHITA,KS,67214,-97.29862368,37.6913617,,1000,1000
H,HANGER CLINIC,,20223195,,1340329205,410 N HILLSIDE ST,WICHITA,KS,67214,-97.29819063,37.69243781,,1000,
F,COMFORT CARE HOMES INC #441,,,,1340328064,441 S MORNINGSIDE ST,Wichita,KS,67218,-97.26267808,37.68272184,,1000,5000
H,ALL ABOUT HER,,20110365,,1340326623,536 S BLUFF STREET,WICHITA,KS,67218,-97.33647846,37.69961753,,1000,5000
H,WICHITA DIABETES AND ENDOCRINOLOGY LLC,,1407314016,,1340326419,8110 E 32ND ST N,WICHITA,KS,67226,-97.24298901,37.74323799,,1000,1000
H,GRACEMED HEALTH CLINIC INC,,1063485936,,1340326091,1122 N TOPEKA ST,WICHITA,KS,67214,-97.33391211,37.70348191,,1000,1000
F,ASSOCIATED EYE SURGICAL CENTER,,,,1340326080,1100 N TOPEKA STREET,Wichita,KS,67214,-97.33392311,37.70272784,,1000,5000
H,VISION SURGERY CONSULTANTS PA,,1396751574,,1340326080,1100 N TOPEKA ST,WICHITA,KS,67214,-97.33392311,37.70272784,,1000,5000
H,WELLNESS ASSOCIATES LLC,,1003829755,,1340325719,3743 N ROCK RD,WICHITA,KS,67226,-97.24533435,37.75099166,,1000,1000
H,GRENE VISION GROUP,,19993515,,1340324870,1821 E MADISON AVE,DERBY,KS,67037,-97.24235605,37.54744131,,1000,1000
H,"LOVE MY NURSE, LLC",,178104,,1340324645,1634 E CENTRAL,WICHITA,KS,67214,-97.31825164,37.69376894,,1000,5000
H,DILLON'S PHARMACY #066,,20160423,,1340324520,2244 N ROCK RD,WICHITA,KS,67226,-97.24240106,37.72461703,,1000,1000
H,ASCENSION VIA CHRISTI HOSPITALS WICHITA INC,,1013145572,,1340323979,1121 S CLIFTON AVE,WICHITA,KS,67218,-97.33658947,37.714367,,1000,5000
F,SEDGWICK COUNTY BACKUP PSAP,,,,1340323606,1015 Stillwell,Wichita,KS,67213,-97.35247806,37.67063763,,1000,1000
F,FAMILY HEALTH & REHABILITATION CENTER,,,,1340323355,639 S MAIZE COURT,Wichita,KS,67209,-97.46352317,37.67265183,,1000,1000
H,FAMILY HEALTH & REHABILITATION CENTER,,175501,,1340323355,639 S MAIZE COURT,WICHITA,KS,67209,-97.46352317,37.67265183,,1000,1000
H,DILLON PHARAMCY #16,,20160543,,1340322498,8828W 13TH N ST,WICHITA,KS,67212,-97.44577339,37.70991856,,1000,1000
S,ST ANNE ELEMENTARY SCHOOL,77657,,2399015829,1340322462,1121 W REGAL ST,WICHITA,KS,67217,-97.35331215,37.64293186,,1000,5000
S,FRIENDS UNIVERSITY,,,,1340322407,2100 W. University Ave.,Wichita,KS,67213,-97.33474529,37.61222189,,1000,1000
H,WALMART PHARMACY 10-5855,,20030547,,1340322128,10550 W CENTRAL AVE,WICHITA,KS,67212,-97.46459027,37.69545711,,1000,
S,HEIGHTS HIGH,77679,,2399039775,1340321765,5301 N Hillside,Wichita,KS,67219,-97.30052387,37.77988155,,1000,
H,CHENEY PHARMACY,,20263533,,1340321239,114 N MAIN ST,CHENEY,KS,67025,-97.27846766,37.66393796,,1000,1000
C,SOUTH EAST WICHITA CITADEL CORPS COMMUNITY CENTER,,,,1340321205,1739 S Elpyco,Wichita,KS,67218,-97.27851267,37.6613877,See response to 1.3.1 Text Box in Initial Proposal - Volume 1,1000,1000
H,EMERGENT CARE PLUS OF OVERLAND PARK LLC,,1316384332,,1340320624,2001 N ROCK RD,DERBY,KS,67037,-97.24492321,37.56813148,,1000,1000
L,WICHITA PUBLIC LIBRARY,137924,,2399009554,1340320274,711 W. 2nd St. N,Wichita,KS,67203,-97.34769558,37.68693026,,1000,1000
S,BENTON ELEM,77587,,2399039775,1340320165,338 S Woodchuck Ln,Wichita,KS,67209,-97.43431225,37.67849741,,1000,
H,CVS PHARMACY #17060,,19902885,,1340320163,7575 W MAPLE ST,WICHITA,KS,67209,-97.43179099,37.67769133,,1000,1000
H,APRIA HEALTHCARE LLC,,20101443,,1340320066,318N CLEVELAND AVE,WICHITA,KS,67214,-97.32149596,37.69041661,,1000,1000
F,MEADOWLARK ADULT CARE HOME 2,,,,1340319792,254 S ROBIN RD,Wichita,KS,67209,-97.44221204,37.67996156,,1000,1000
S,CLARK ELEM,77574,,2399039775,1340319692,650 S. Apache,Wichita,KS,67207,-97.25559537,37.67380095,,1000,
F,CYPRESS SURGERY CENTER,,,,1340319556,9300 EAST 29TH STREET NORTH,Wichita,KS,67226,-97.22943976,37.73876644,,1000,2500
H,KANSAS SURGICAL CONSULTANTS LLP,,1063765667,,1340319556,9300 E 29TH ST N,WICHITA,KS,67226,-97.22943976,37.73876644,,1000,2500
H,ENDOCRINE CENTER OF KANSAS LLC,,1396497905,,1340319556,9300 E 29TH ST N,WICHITA,KS,67226,-97.22943976,37.73876644,,1000,2500
H,SCRAPPY ENTERPRISES INC,,1013321728,,1340318328,300 W DOUGLAS AVE,WICHITA,KS,67202,-97.34097881,37.68651722,,1000,5000
H,WICHITA PRIMARY CARE LLC,,1336160134,,1340318096,2230 N RIDGE RD,WICHITA,KS,67205,-97.42365118,37.72462803,,1000,
H,PROMEDICA HOSPICE (WICHITA),,171528,,1340318059,2872 N RIDGE ROAD,WICHITA,KS,67205,-97.42474529,37.73590716,,1000,
H,PROMEDICA HOME HEALTH (WICHITA),,177202,,1340318059,2872 N RIDGE RD,WICHITA,KS,67205,-97.42474529,37.73590716,,1000,
S,CHISHOLM TRAIL ELEM,225479,,2399039775,1340317911,6015 Independence,Park City,KS,67219,-97.32538435,37.79295286,,1000,5000
S,RIVERSIDE LEADERSHIP MAGNET ELEMENTARY,77555,,2399039775,1340317739,1001 Porter,Wichita,KS,67203,-97.35826264,37.70155872,,1000,1000
S,MAYBERRY CULTURAL AND FINE ARTS MAGNET MIDDLE,77622,,2399039775,1340317513,207 S Sheridan,Wichita,KS,67213,-97.38142896,37.68166673,,1000,
S,LAWRENCE ELEM,77623,,2399039775,1340317513,3440 W Maple,Wichita,KS,67213,-97.38142896,37.68166673,,1000,
S,CLARK DAVIDSON ELEM,77422,,2399004922,1340317429,333 S Walnut,Goddard,KS,67052,-97.58163498,37.65366193,,1000,1000
S,ST JUDE CATHOLIC SCHOOL,77561,,2399003416,1340317398,3030 N AMIDON AVE,WICHITA,KS,67204,-97.36244506,37.73880145,,1000,1000
H,TRAN MAJHER AND SHAW OD PA,,1225385644,,1340317247,10531 E 21ST ST N,WICHITA,KS,67206,-97.21544036,37.72248881,,1000,1000
H,"PALMER PHYSICAL THERAPY FOR WOMEN, INC.",,1386689784,,1340317226,10333 E 21ST ST N,WICHITA,KS,67206,-97.21806762,37.72244781,,1000,1000
F,CORNERSTONE ASSISTED LIVING INC,,,,1340316165,1240 N BROADMOOR AVE,Wichita,KS,67206,-97.2488736,37.7063282,,1000,1000
H,SPECIALIZED HOME CARE,,178122,,1340316158,1223 N ROCK ROAD,WICHITA,KS,67206,-97.24597831,37.70576714,,1000,5000
H,LENTZ EYE CARE,,20273955,,1340316158,1223 N ROCK RD,WICHITA,KS,67206,-97.24597831,37.70576714,,1000,5000
H,"LENTZ ENTERPRISES, LLC",,1356963029,,1340316158,1223 N ROCK RD BLDG C,WICHITA,KS,67206,-97.24597831,37.70576714,,1000,5000
F,SOUTHERNCARE WICHITA,,,,1340315600,301 N MAIN,Wichita,KS,67202,-97.33900672,37.6903506,,1000,5000
G,EPIC CENTER,,,,1340315600,301 N MAIN ST,WICHITA,KS,67202,-97.33900672,37.6903506,,1000,5000
H,ASCENSION AT HOME,,177145,,1340315600,"301 N. MAIN STREET, SUITE 950",WICHITA,KS,67202,-97.33900672,37.6903506,,1000,5000
C,CENTRAL PLAINS AREA AGENCY ON AGING,,,,1340315599,271 W. 3rd St.,Wichita,KS,67202,-97.34014583,37.69121779,See response to 1.3.1 Text Box in Initial Proposal - Volume 1,1000,5000
C,SEDGWICK COUNTY DEPARTMENT ON AGING,,,,1340315599,271 W 3rd St,Wichita,KS,67202,-97.34014583,37.69121779,See response to 1.3.1 Text Box in Initial Proposal - Volume 1,1000,5000
H,X-RAY PROFESSIONAL ASSOCIATION,,1164630117,,1340315090,235 N WOODCHUCK ST,WICHITA,KS,67212,-97.43490121,37.68612728,,1000,5000
H,RADIOLOGY CONSULTANTS OF LYNCHBURG INC,,1205986874,,1340315090,235 N WOODCHUCK ST,WICHITA,KS,67212,-97.43490121,37.68612728,,1000,5000
H,MOUNTAIN MEDICAL PHYSICIAN SPECIALISTS PC,,1255857355,,1340315090,235 N WOODCHUCK ST,WICHITA,KS,67212,-97.43490121,37.68612728,,1000,5000
H,COLUMBUS RADIOLOGY PHYSICIANS LLC,,1396772703,,1340315090,235 N WOODCHUCK ST,WICHITA,KS,67212,-97.43490121,37.68612728,,1000,5000
H,DIRECT RADIOLOGY PLLC,,1396772703,,1340315090,235 N WOODCHUCK ST,WICHITA,KS,67212,-97.43490121,37.68612728,,1000,5000
H,KINDRED HOSPICE,,171542,,1340315040,9229 E 37th St N #102b,WICHITA,KS,67226,-97.23051787,37.75141071,,1000,2500
F,KANSAS HEART HOSPITAL,,,,1340315034,3601 NORTH WEBB ROAD,Wichita,KS,67226,-97.22735155,37.74996856,,1000,2500
H,KANSAS HEART HOSPITAL,,170186,,1340315034,3601 NORTH WEBB ROAD,WICHITA,KS,67226,-97.22735155,37.74996856,,1000,2500
H,LAYNE M REUSSER MD PA,,1003879974,,1340315034,3601 N WEBB RD,WICHITA,KS,67226,-97.22735155,37.74996856,,1000,2500
H,AZIZ R MAKSOUD MD PA,,1003961764,,1340315034,3601 N WEBB RD,WICHITA,KS,67226,-97.22735155,37.74996856,,1000,2500
H,"KANSAS NEPHROLOGY PHYSICIANS, P.A.",,1043404940,,1340315034,3601 N WEBB RD,WICHITA,KS,67226,-97.22735155,37.74996856,,1000,2500
H,"CARDIOVASCULAR ANESTHESIA OF WICHITA, LLC",,1093942575,,1340315034,3601 N WEBB RD,WICHITA,KS,67226,-97.22735155,37.74996856,,1000,2500
H,INPATIENT CONSULTANTS OF KANSAS PA,,1104170273,,1340315034,3601 N WEBB RD,WICHITA,KS,67226,-97.22735155,37.74996856,,1000,2500
H,THOMAS L ASHCOM MD PHD PA,,1164666772,,1340315034,3601 N WEBB RD,WICHITA,KS,67226,-97.22735155,37.74996856,,1000,2500
H,RICHARD A STECKLEY MD PA,,1245563006,,1340315034,3601 N WEBB RD,WICHITA,KS,67226,-97.22735155,37.74996856,,1000,2500
H,KANSAS IMAGING CONSULTANTS PA,,1366856015,,1340315034,3601 N WEBB RD,WICHITA,KS,67226,-97.22735155,37.74996856,,1000,2500
H,LAYNE M REUSSER MD PA,,1003879974,,1340315023,9350 E 35TH ST N,WICHITA,KS,67226,-97.22927874,37.75015768,,1000,1000
H,AZIZ R MAKSOUD MD PA,,1003961764,,1340315023,9350 E 35TH ST N,WICHITA,KS,67226,-97.22927874,37.75015768,,1000,1000
H,WICHITA SURGICAL SPECIALISTS PA,,1083081186,,1340315023,9350 E 35TH N,WICHITA,KS,67226,-97.22927874,37.75015768,,1000,1000
H,BASSEM M CHEHAB MD PA,,1245563006,,1340315023,9350 E 35TH ST N,WICHITA,KS,67226,-97.22927874,37.75015768,,1000,1000
H,JASON T TAUKE MD PA,,1245563006,,1340315023,9350 E 35TH N ST,WICHITA,KS,67226,-97.22927874,37.75015768,,1000,1000
H,PATRICK TERS MD PA,,1265459960,,1340315023,9350 E 35TH ST N,WICHITA,KS,67226,-97.22927874,37.75015768,,1000,1000
H,THOMAS L ASHCOM MD PHD PA,,1275061442,,1340315023,9350 E 35TH ST N,WICHITA,KS,67226,-97.22927874,37.75015768,,1000,1000
H,CHRISTIAN A HOURANI MD PA,,1306015060,,1340315023,9350 E 35TH ST N,WICHITA,KS,67226,-97.22927874,37.75015768,,1000,1000
S,KELLY LIBERAL ARTS ACADEMY,77658,,2399039775,1340314975,3143 S Millwood,Wichita,KS,67217,-97.3598897,37.63749731,,1000,
H,TRADITIONS HEALTH,,171611,,1340314701,3221 N TOBEN ST,WICHITA,KS,67226,-97.27012883,37.75462003,,1000,5000
H,UNIVERSITY OF KANSAS SCHOOL OF MEDICINE WICHITA MEDICAL PRACTICE ASSOC,,1013685494,,1340314592,8533 E 32ND ST N,WICHITA,KS,67226,-97.23836265,37.74225889,,1000,1000
H,MID-AMERICA CARDIOLOGY ASSOCIATES INC,,1093962250,,1340314592,8533 E 32ND ST N,WICHITA,KS,67226,-97.23836265,37.74225889,,1000,1000
G,NORTH PLAZA,,,,1340314587,8440 E 29TH ST N,WICHITA,KS,67226,-97.23905172,37.73828849,,1000,1000
H,BROWN CHIROPRACTIC LLC,,1396248555,,1340314587,8440 E 29TH ST N,WICHITA,KS,67226,-97.23905172,37.73828849,,1000,1000
G,FEDERAL LEASED BUILDING,,,,1340314585,8415 E 32ND ST N,WICHITA,KS,67226,-97.23964078,37.74241881,,1000,1000
F,CARING HEARTS FOR SENIOR LIVING,,,,1340314356,1229 S BYRON,Wichita,KS,67209,-97.44735155,37.6713927,,1000,1000
F,PLANT 1,,,,1340314050,9709 E Central Ave,Wichita,KS,67210,-97.22276709,37.69291786,,1000,1000
H,MID-KANSAS WOMENS CENTER PA,,1023098548,,1340313585,2131 N RIDGE RD,WICHITA,KS,67212,-97.42761758,37.72185075,,1000,
S,Kansas State University,,,,1340313061,7001 W 21st N,Wichita,KS,67205,-97.42498921,37.7223378,,1000,1000
H,"HEARTLAND CARDIOLOGY, LLC",,1063183416,,1340312942,3535 N WEBB RD,WICHITA,KS,67226,-97.22730155,37.7473313,,1000,2500
H,WALGREENS #7147,,19943247,,1340312759,1555 S BROADWAY AVE,WICHITA,KS,67211,-97.33618943,37.66482105,,1000,1000
H,DILLON PHARAMCY,,20160393,,1340311169,1624N ROCK RD,DERBY,KS,67037,-97.24126794,37.56366193,,1000,1000
H,LITTLE CLINIC OF KANSAS LLC,,1215441118,,1340311169,1624 N ROCK RD,DERBY,KS,67037,-97.24126794,37.56366193,,1000,1000
S,WHITE ELEM,77651,,2399039775,1340310564,5148 S Kansas,Wichita,KS,67216,-97.23648446,37.64529819,,1000,1000
F,CARRINGTON AT CHERRY CREEK,,,,1340309866,8200 E PAWNEE,Wichita,KS,67207,-97.24168498,37.65452202,,1000,1000
H,KANSAS POST ACUTE MEDICAL SERVICES 1 PA,,1407806979,,1340309866,8200 E PAWNEE ST,WICHITA,KS,67207,-97.24168498,37.65452202,,1000,1000
F,AMG SPECIALTY HOSPITAL,,,,1340309864,8080 EAST PAWNEE STREET,Wichita,KS,67207,-97.24266708,37.65511718,,1000,1000
F,AMG SPECIALTY HOSPITAL LTCU,,,,1340309864,8080 E PAWNEE,Wichita,KS,67207,-97.24266708,37.65511718,,1000,1000
H,SENIOR CARE PHARMACY,,20204217,,1340308624,1402 S RIDGE RD,WICHITA,KS,67209,-97.42527834,37.6683414,,1000,1000
F,WICHITA COMMUNITY POLICING,,,,1340307284,2755 E 19th St N,Wichita,KS,67214,-97.30414523,37.71829149,,1000,1000
H,ADVANCED PT LLC,,1376167197,,1340306781,1755 E 61ST ST N,PARK CITY,KS,67219,-97.31551737,37.7953461,,1000,1000
H,NEWTON HEALTHCARE CORPORATION,,1407926868,,1340306781,1755 E 61ST ST N,PARK CITY,KS,67219,-97.31551737,37.7953461,,1000,1000
F,PARK CITY POLICE DEPT,,,,1340306776,6100 N Hydraulic St,Park City,KS,67219,-97.31668948,37.79400707,,1000,1000
F,PARK CITY POLICE DEPT,,,,1340306776,6100 N Hydraulic St,Wichita,KS,67219,-97.31668948,37.79400707,,1000,1000
L,PARK CITY PUBLIC LIBRARY,212208,,,1340306771,2107 E. 61st St. N,Park City,KS,67219,-97.31250101,37.79540773,,1000,
S,KAPAUN MT CARMEL CATHOLIC HIGH SCHOOL,,,2399024614,1340306738,8506 E CENTRAL AVE,WICHITA,KS,67206,-97.23807362,37.69511818,,1000,
H,WEST SIDE MEDICAL SUPPLY INC,,20054709,,1340306734,602 N WEBB RD,WICHITA,KS,67206,-97.22538435,37.69603227,,1000,1000
F,REGENT PARK REHABILITATION & HEALTHCARE,,,,1340306224,10604 E. 13th St. N.,Wichita,KS,67206,-97.21344516,37.70895146,,1000,1000
H,KANSAS POST ACUTE MEDICAL SERVICES 1 PA,,1144565433,,1340306224,10600 E 13TH ST N,WICHITA,KS,67206,-97.21344516,37.70895146,,1000,1000
H,KANSAS POST ACUTE MEDICAL SERVICES 1 PA,,1154736445,,1340306224,10604 E 13TH ST N,WICHITA,KS,67206,-97.21344516,37.70895146,,1000,1000
F,THE CENTER AT WATERFRONT,,,,1340306213,1541 N Lindberg Cir,Wichita,KS,67206,-97.21923474,37.71167773,,1000,2000
H,CENTER AT WATERFRONT LLC,,175564,,1340306213,1541 NORTH LINDBERG CIRCLE,WICHITA,KS,67206,-97.21923474,37.71167773,,1000,2000
H,RESTORATION HEALTH CARE LLC,,1063502474,,1340306213,1541 N LINDBERG CIR,WICHITA,KS,67206,-97.21923474,37.71167773,,1000,2000
H,MATTHEW H CONRAD MD PA,,20212023,,1340306199,1700 N WATERFRONT PKWY,WICHITA,KS,67206,-97.22267308,37.71444801,,1000,2000
H,HARTER PHYSICAL THERAPY LLC,,1205272259,,1340306144,19931 W KELLOGG DR,GODDARD,KS,67052,-97.56839565,37.6633609,,1000,1000
F,WICHITA COMMUNITY POLICING,,,,1340306024,957 S Glendale St,Wichita,KS,67218,-97.27954577,37.67022169,,1000,1000
F,"REFLECTION LIVING, LLC",,,,1340305457,1377 N IROQUOIS RD,Wichita,KS,67203,-97.36933975,37.70745031,,1000,1000
F,HOMESTEAD OF CRESTVIEW,,,,1340304656,600 NORTH 127TH ST EAST,Wichita,KS,67206,-97.18799551,37.69576614,,1000,1000
S,WICHITA AREA TECHINCAL COLLEGE SOUTHSIDE,,,,1340304216,4501 E 47TH ST S,Wichita,KS,67210,-97.28436225,37.60456202,,1000,1000
H,ABSOLUTE HOME HEALTH CARE,,178044,,1340304205,1619 S RUTAN,WICHITA,KS,67218,-97.29708452,37.66388295,,1000,1000
H,ADVANCED MEDICAL DME LLC,,20170749,,1340303872,2020 N WOODLAWN ST,WICHITA,KS,67208,-97.26094581,37.72007767,,1000,1000
H,VISION CARE 4LIFE,,20189025,,1340303872,2020 N WOODLAWN,WICHITA,KS,67208,-97.26094581,37.72007767,,1000,1000
F,TRINITY HOSPICE,,,,1340303869,1938 N. WOODLAWN,Wichita,KS,67208,-97.25913973,37.71950652,,1000,1000
S,WEST HIGH,77629,,2399039775,1340303310,820 S Osage,Wichita,KS,67213,-97.34733455,37.67412708,,1000,
F,ENCOMPASS HEALTH HOSPICE,,,,1340302611,4747 S EMPORIA,Wichita,KS,67216,-97.3318399,37.60943051,,1000,
H,CANCER CENTER OF KANSAS.P.A.,,1053372649,,1340302439,9050 E 29TH ST N,WICHITA,KS,67226,-97.2318739,37.73821249,,1000,2500
H,TAPESTRY TELEHEALTH PLLC,,1003246851,,1340302208,14925 E TIPPERARY CIR,WICHITA,KS,67230,-97.16525134,37.70016268,,1000,1000
H,PROGRESSIVE ORTHOTIC & PROSTHETIC S,,20242485,,1340302133,1150 N. SAINT FRANCIS,WICHITA,KS,67214,-97.33135695,37.70402107,,1000,1000
S,CENTRAL CHRISTIAN ACADEMY,77684,,,1340300503,2900 N ROCK RD,WICHITA,KS,67226,-97.24436225,37.73479804,,1000,1000
F,LEGACY AT COLLEGE HILL,,,,1340300011,5005 E 21ST ST N,Wichita,KS,67208,-97.27830165,37.7223618,,1000,1000
H,LEGACY AT COLLEGE HILL,,175078,,1340300011,5005 E 21ST STREET NORTH,WICHITA,KS,67208,-97.27830165,37.7223618,,1000,1000
H,KANSAS POST ACUTE MEDICAL SERVICES 1 PA,,1023264751,,1340298873,1425 N STRATFORD LN,WICHITA,KS,67206,-97.25875669,37.7103716,,1000,1000
H,WALMART PHARMACY 10-3492,,20034639,,1340298293,11411 E KELLOGG DR,WICHITA,KS,67207,-97.20440126,37.67644121,,1000,
S,NORTHFIELD SCHOOL OF LIBERAL ARTS,,,,1340297915,1813 W UNIVERSITY ST,WICHITA,KS,67213,-97.36190191,37.67757132,,1000,1000
F,SUNFLOWER MEADOWS #2,,,,1340297855,5502 POLO,Wichita,KS,67208,-97.27218403,37.70609227,,1000,1000
F,ASCENSION VIA CHRISTI NORTH AMIDON,,,,1340297550,1900 N. Amidon,Wichita,KS,67203,-97.36231205,37.71804147,,1000,5000
H,THE DERMATOLOGY CLINIC PA,,1003474271,,1340297455,835 N HILLSIDE ST,WICHITA,KS,67214,-97.29947876,37.6983074,,1000,1000
F,SURGICARE OF WICHITA INC,,,,1340297449,810 NORTH LORRAINE STREET,Wichita,KS,67214,-97.29998471,37.69768233,,1000,1000
H,HILLSIDE MEDICAL OFFICE LLC,,1003879974,,1340297448,855 N HILLSIDE ST,WICHITA,KS,67214,-97.29948976,37.69902757,,1000,1000
F,MIDWEST SURGERY CENTER LLC,,,,1340297447,825 NORTH HILLSIDE,Wichita,KS,67214,-97.29946776,37.69783135,,1000,1000
S,EL PASO ELEM,77390,,2399010679,1340297281,900 E Crestway,Derby,KS,67037,-97.26097881,37.55382195,,1000,1000
F,ORCHARD GARDENS,,,,1340297093,1600 S WOODLAWN,Wichita,KS,67218,-97.26145196,37.66417808,,1000,1000
H,ORCHARD GARDENS,,175452,,1340297093,1600 S WOODLAWN BLVD,WICHITA,KS,67218,-97.26145196,37.66417808,,1000,1000
H,SHELBY RADIOLOGICAL ASSOCIATES PA,,1396478426,,1340297053,8900 W UNIVERSITY ST,WICHITA,KS,67209,-97.44566238,37.67808847,,1000,1000
H,ACADIANA RADIOLOGY GROUP,,1396772703,,1340297053,8900 W UNIVERSITY ST,WICHITA,KS,67209,-97.44566238,37.67808847,,1000,1000
F,SOCIAL SECURITY BUILDING,,,,1340296597,3216 N Cypress Dr,Wichita,KS,67226,-97.23458927,37.74274184,,1000,1000
G,SOCIAL SECURITY ADM - WICHITA,,,,1340296597,3216 N CYPRESS ST,WICHITA,KS,67226,-97.23458927,37.74274184,,1000,1000
S,CENTER FOR BEHAVIORAL AND ACADEMIC RESEARCH,,,2399017834,1340296563,2821 E 24TH ST N,WICHITA,KS,67219,-97.30428424,37.72777834,,1000,5000
S,BISHOP CARROLL CATHOLIC HIGH SCHOOL,77619,,2399024604,1340296517,8101 W CENTRAL AVE,WICHITA,KS,67212,-97.43658441,37.69272846,,1000,
S,WILBUR MIDDLE SCHOOL,77618,,2399039775,1340296492,340 N Tyler Rd,Wichita,KS,67212,-97.44151297,37.68788135,,1000,1000
H,"PEARL OB/GYN, LLC",,1407953722,,1340296190,3252 E DOUGLAS AVE,WICHITA,KS,67208,-97.29692341,37.68693726,,1000,1000
H,NEWTON HEALTHCARE CORPORATION,,1144678368,,1340295881,3443 N AMIDON AVE,WICHITA,KS,67204,-97.36356717,37.74599116,,1000,1000
F,COMFORT CARE HOMES #219,,,,1340294257,219 SOUTH MORNINGSIDE,Wichita,KS,67218,-97.26730155,37.68417108,,1000,5000
S,PARK ELEMENTARY,77897,,2399039775,1340294186,1025 N Main,Wichita,KS,67203,-97.33900172,37.7013377,,1000,1000
H,WICHITA UROLOGY GROUP PA,,1275756132,,1340294001,2626 N WEBB RD,WICHITA,KS,67226,-97.22527334,37.73109877,,1000,
F,KANSAS SURGERY & RECOVERY CENTER,,,,1340293999,2770 N WEBB RD,Wichita,KS,67226,-97.22519033,37.73314198,,1000,1000
H,KANSAS SURGERY & RECOVERY CENTER,,170183,,1340293999,2770 NORTH WEBB ROAD,WICHITA,KS,67226,-97.22519033,37.73314198,,1000,1000
H,"ANESTHESIA CONSULTING SERVICES, PA",,1013145572,,1340293999,2770 N WEBB RD,WICHITA,KS,67226,-97.22519033,37.73314198,,1000,1000
H,KANSAS IMAGING CONSULTANTS PA,,1023090503,,1340293999,2770 N WEBB RD,WICHITA,KS,67226,-97.22519033,37.73314198,,1000,1000
H,INPATIENT CONSULTANTS OF KANSAS PA,,1194704312,,1340293999,2770 N WEBB RD,WICHITA,KS,67226,-97.22519033,37.73314198,,1000,1000
H,"ADVANCED ORTHOPAEDIC ASSOCIATES, P.A.",,1013955053,,1340293997,2778 N WEBB RD,WICHITA,KS,67226,-97.22409022,37.73286185,,1000,1000
F,NE WICHITA DIALYSIS CENTER,,,,1340293996,2630 N WEBB RD,Wichita,KS,67226,-97.22526234,37.73161273,,1000,1000
H,DAVITA NE WICHITA DIALYSIS CENTER,,172542,,1340293996,2630 N Webb Rd,WICHITA,KS,67226,-97.22526234,37.73161273,,1000,1000
H,"WICHITA NEPHROLOGY GROUP, PA",,1104025949,,1340293996,2630 N WEBB RD,WICHITA,KS,67226,-97.22526234,37.73161273,,1000,1000
S,NORTH HIGH,77552,,2399039775,1340293795,1437 Rochester,Wichita,KS,67203,-97.3448512,37.7093085,,1000,
H,GRENE VISION GROUP,,19993551,,1340293631,1014 W 29TH ST S,WICHITA,KS,67217,-97.35171299,37.64096766,,1000,1000
L,CHENEY PUBLIC LIBRARY,137835,,,1340293328,203 N Main,Cheney,KS,67025,-97.26776759,37.68185775,,1000,5000
F,ARBOR HOME - MARJORIE,,,,1340293323,6311 E MARJORIE,Wichita,KS,67208,-97.262889,37.69812748,,1000,5000
H,TALLGRASS EYECARE LLC,,20052357,,1340292501,8100 E 22ND ST N,WICHITA,KS,67226,-97.24240606,37.72724639,,1000,1000
F,BROOKDALE - TALLGRASS,,,,1340292400,8600 E 21ST NORTH,Wichita,KS,67206,-97.23719553,37.72350092,,1000,1000
G,U.S. COURT HOUSE,,,,1340291755,401 N MARKET ST,WICHITA,KS,67202,-97.33734055,37.69198876,,1000,1000
H,DILLION PHARMACY #49,,20161107,,1340291411,10222 W 21ST ST N,WICHITA,KS,67205,-97.46113993,37.72395096,,1000,1000
H,LITTLE CLINIC OF KANSAS LLC,,1104540053,,1340291411,10222 W 21ST ST N,WICHITA,KS,67205,-97.46113993,37.72395096,,1000,1000
S,WELLSPRING SCHOOL OF ALLIED HEALTH-WICHITA,,,2399039775,1340290798,600 S Tyler Road,Wichita,KS,67209,-97.44257807,37.67343791,,1000,1000
S,PARK HILL ELEMENTARY,235152,,2399010679,1340290528,1500 E Woodbrook Lane,Derby,KS,67037,-97.24711753,37.52945651,,1000,1000
F,VINTAGE PARK AT WATERFRONT,,,,1340290208,900 N BAYSHORE DR,Wichita,KS,67212,-97.41134595,37.70114778,,1000,1000
F,SANDPIPER BAY HEALTH CARE CENTER,,,,1340290205,5808 W 8TH ST N,Wichita,KS,67212,-97.41129594,37.7003806,,1000,1000
H,SANDPIPER HEALTHCARE & REHABILITATION CENTER,,175344,,1340290205,5808 W 8TH STREET NORTH,WICHITA,KS,67212,-97.41129594,37.7003806,,1000,1000
S,THREE ANGELS SEVENTH-DAY ADVENTIST SCHOOL,,,,1340289740,4558 N HYDRAULIC ST,WICHITA,KS,67219,-97.31643446,37.76551712,,1000,
G,WICHITA DWIGHT D. EISENHOWER NATIONAL AIRPORT,,,,1340289046,2277 S EISENHOWER AIRPORT PKWY,WICHITA,KS,67209,-97.43298405,37.65497868,,1000,
H,HOME HEALTH & HOSPICE OF KANSAS,,171568,,1340288981,7607 E HARRY,WICHITA,KS,67207,-97.24863468,37.66417108,,1000,1000
S,ABILENE ELEM,77515,,2399031532,1340288735,522 N Abilene,Valley Center,KS,67147,-97.37016783,37.83818748,,1000,
H,DILLON PHARMACY #91,,20162415,,1340288673,3020E DOUGLAS AVE,WICHITA,KS,67214,-97.30036285,37.68721239,,1000,1000
S,FAITH LUTHERAN SCHOOL,,,,1340288451,208 S DERBY AVE,DERBY,KS,67037,-97.26635645,37.54478704,,1000,1000
H,"NORTHWEST FAMILY PHYSICIANS, LLC",,1063508448,,1340288220,3730 N RIDGE RD,WICHITA,KS,67205,-97.42514533,37.75081765,,1000,
H,ADVANCED PT LLC,,1417691874,,1340288220,3730 N RIDGE RD,WICHITA,KS,67205,-97.42514533,37.75081765,,1000,
H,THE CHILDREN'S MERCY HOSPITAL,,1104365139,,1340288217,6837 W 37TH ST N,WICHITA,KS,67205,-97.42262308,37.75162173,,1000,1000
F,VIA CHRISTI VILLAGE - RIDGE,,,,1340288197,3636 NORTH RIDGE RD,Wichita,KS,67205,-97.42069088,37.74917158,,1000,1000
H,VIA CHRISTI VILLAGE RIDGE,,175539,,1340288197,3636 NORTH RIDGE RD,WICHITA,KS,67205,-97.42069088,37.74917158,,1000,1000
H,KANSAS POST ACUTE MEDICAL SERVICES 1 PA,,1235666900,,1340288197,3636 N RIDGE RD,WICHITA,KS,67205,-97.42069088,37.74917158,,1000,1000
H,KCI USA INC,,20228163,,1340287725,1632 S WEST ST,WICHITA,KS,67213,-97.38775659,37.66494706,,1000,1000
S,WICHITA ADVENTIST CHRISTIAN ACADEMY,,,,1340286861,2725 S OSAGE AVE,WICHITA,KS,67217,-97.34902372,37.64497106,,1000,1000
H,WAL-MART PHARMACY 10-1099,,20031975,,1340286791,501 E PAWNEE ST,WICHITA,KS,67211,-97.33217303,37.64786235,,1000,
H,DANDURAND DRUGS CO INC,,20111079,,1340286589,7732 E CENTRAL AVE,WICHITA,KS,67206,-97.24606242,37.69480805,,1000,
H,WICHITA UROLOGY GROUP PA,,1023351905,,1340286187,2077 N WEBB RD,WICHITA,KS,67206,-97.22774059,37.7213787,,1000,1000
H,FRESENIUS MEDICAL CARE- WICHITA EAST,,172543,,1340286181,9341 E 21st N,WICHITA,KS,67206,-97.22893461,37.72123779,,1000,
H,"KANSAS NEPHROLOGY PHYSICIANS, P.A.",,1043404940,,1340286181,9341 E 21ST ST N,WICHITA,KS,67206,-97.22893461,37.72123779,,1000,
H,WALGREENS #6006,,19938789,,1340286152,9525 E 21ST ST N,WICHITA,KS,67206,-97.22690141,37.7223218,,1000,1000
H,"ASCENSION MEDICAL GROUP VIA CHRISTI, PA",,1124223649,,1340286151,9211 E 21ST ST N,WICHITA,KS,67206,-97.2298517,37.72217888,,1000,1000
F,BROOKDALE - EAST WICHITA,,,,1340286149,9191 EAST 21ST STREET NORTH,Wichita,KS,67206,-97.23120194,37.72228189,,1000,1000
H,LEGACY HEALTHCARE SERVICES INC,,1285060707,,1340285492,10665 W 13TH ST N,WICHITA,KS,67212,-97.46603442,37.70763133,,1000,1000
H,GRENE VISION GROUP,,19993545,,1340285474,1277 N MAIZE RD,WICHITA,KS,67212,-97.46312813,37.70628629,,1000,1000
H,GRENE VISION GROUP LLC,,1043572613,,1340285474,1277 N MAIZE RD,WICHITA,KS,67212,-97.46312813,37.70628629,,1000,1000
H,EMERGENT CARE PLUS OF OVERLAND PARK LLC,,1013344589,,1340285473,1261 N MAIZE RD,WICHITA,KS,67212,-97.46301212,37.70569113,,1000,1000
H,KINDFUL HOSPICE,,171612,,1340285316,1608 E LEWIS STREET,WICHITA,KS,67211,-97.31795651,37.68112778,,1000,5000
H,HERMES HEALTHCARE PA,,1336404524,,1340284853,3343 W CENTRAL AVE,WICHITA,KS,67203,-97.38169598,37.69452002,,1000,
F,COMFORT CARE HOMES INC #1434,,,,1340284716,1434 N ARMOUR,Wichita,KS,67206,-97.25747356,37.70996256,,1000,1000
H,SAM'S PHARMACY 10-6275,,20043375,,1340284200,3084 N. Maize Rd.,WICHITA,KS,67215,-97.45996271,37.73961253,,1000,
H,LYLE ZEPICK MD PA,,1245876663,,1340284139,630 S HILLSIDE ST,WICHITA,KS,67211,-97.29847866,37.67656122,,1000,5000
H,R.W.ICKE O.D.,,20263005,,1340283346,7050 E LINCOLN ST,WICHITA,KS,67207,-97.25423424,37.67241181,,1000,1000
S,HONEYTREE AND BRANCHES ACADEMY,,,,1340283193,12725 W 21ST ST N,WICHITA,KS,67235,-97.48923474,37.72145771,,1000,
F,WESLEY MEDICAL CENTER - WEST WICHITA ER,,,,1340282980,8714 W 13th St N,Wichita,KS,67212,-97.44301212,37.71013168,,1000,1000
H,ASSOCIATES IN WOMENS HEALTH PA,,1386743094,,1340282980,8710 W 13TH ST N,WICHITA,KS,67212,-97.44301212,37.71013168,,1000,1000
C,KEN SHANNON NORTHWEST YMCA,,,,1340281421,13838 W. 21st Street N,Wichita,KS,67235,-97.50343416,37.72318198,See response to 1.3.1 Text Box in Initial Proposal - Volume 1,1000,1000
S,PLEASANT VALLEY ELEM,77562,,2399039775,1340280733,2000 W 29th St No,Wichita,KS,67204,-97.36797851,37.7383574,,1000,1000
S,PLEASANT VALLEY MIDDLE SCHOOL,77563,,2399039775,1340280733,2220 W 29th N,Wichita,KS,67204,-97.36797851,37.7383574,,1000,1000
H,"ASCENSION MEDICAL GROUP VIA CHRISTI, PA",,1003174814,,1340279933,8020 E CENTRAL AVE,WICHITA,KS,67206,-97.24350617,37.69440001,,1000,1000
H,AUDIOLOGY AND HEARING AID SERVICES INC,,1205994621,,1340279933,8020 E CENTRAL AVE,WICHITA,KS,67206,-97.24350617,37.69440001,,1000,1000
H,KANSAS PAIN SPECIALISTS PA,,1033111695,,1340279930,8080 E CENTRAL,WICHITA,KS,67206,-97.24323414,37.69495106,,1000,
H,WICHITA ANESTHESIOLOGY CHARTERED,,1427040617,,1340279930,8080 E CENTRAL AVE,WICHITA,KS,67206,-97.24323414,37.69495106,,1000,
L,WICHITA PUBLIC LIBRARY,137924,,2399009554,1340279728,3051 E. 21st St. N,Wichita,KS,67214,-97.30027884,37.7223218,,1000,1000
F,POLICE DEPT PATROL NORTH,,,,1340279727,3015 E 21st St N,Wichita,KS,67214,-97.3008288,37.72225689,,1000,1000
F,HAYSVILLE POLICE DEPT,,,,1340278270,200 W Grand Ave,Haysville,KS,67060,-97.35369518,37.56491606,,1000,1000
H,HAC INC,,20123217,,1340278269,201 N MAIN ST,HAYSVILLE,KS,67060,-97.35375619,37.5663472,,1000,1000
S,ADAMS ELEM,77338,,2399037311,1340277868,1002 N Oliver,Wichita,KS,67208,-97.28018983,37.70186175,,1000,
H,HEALTHCORE CLINIC INC,,1225603624,,1340276189,2707 E 21ST ST N,WICHITA,KS,67214,-97.30529534,37.72243681,,1000,1000
C,DENNIS SCHOENBECK NORTH YMCA,,,,1340276005,3330 N. Woodlawn Boulevard,Wichita,KS,67220,-97.25915673,37.74428109,See response to 1.3.1 Text Box in Initial Proposal - Volume 1,1000,
S,MORNING STAR CHRISTIAN ACADEMY,,,,1340275847,1201 E BERKELEY ST,WICHITA,KS,67216,-97.32339015,37.63341791,,1000,1000
F,CATHOLIC CHARITIES ADULT DAY SERVIC,,,,1340275690,5920 W CENTRAL,Wichita,KS,67212,-97.41197391,37.69489205,,1000,1000
S,CESSNA ELEM,77666,,2399039775,1340275097,2101 W 45th S,Wichita,KS,67217,-97.36298905,37.61071126,,1000,
H,HOUSE CALL MEDICAL SERVICES,,1053674515,,1340274742,5721 N ATHENIAN AVE,WICHITA,KS,67204,-97.36738455,37.78707237,,1000,1000
H,ASCENSION VIA CHRISTI REHABILITATION HOSPITAL INC,,1093741928,,1340274726,1640 E TALL TREE RD,DERBY,KS,67037,-97.24730155,37.57115178,,1000,1000
H,"ASCENSION MEDICAL GROUP VIA CHRISTI, PA",,1124596887,,1340274726,1640 E TALL TREE RD,DERBY,KS,67037,-97.24730155,37.57115178,,1000,1000
H,HARTER PHYSICAL THERAPY LLC,,1376964130,,1340274574,126 N MAIN ST,CHENEY,KS,67025,-97.26951777,37.67806047,,1000,5000
S,ANDERSON ELEM,77646,,2399039775,1340274191,2945 S Victoria,Wichita,KS,67216,-97.32101792,37.63813648,,1000,1000
S,SCHOOL SERVICE CTR WICHITA,,,2399039775,1340273971,3850 N Hydraulic,Wichita,KS,67219,-97.31546236,37.75427809,,1000,1000
S,MULVANE HIGH,77469,,2399009491,1340272119,1900 N Rock Road,Mulvane,KS,67110,-97.24036285,37.50180875,,1000,1000
H,DAVITA MAIZE DIALYSIS CENTER,,172548,,1340271531,10001 W Grady Avenue,MAIZE,KS,67101,-97.45933975,37.75509617,,1000,
H,"WICHITA NEPHROLOGY GROUP, PA",,1104025949,,1340271531,10001 W GRANDY AVE,MAIZA,KS,67101,-97.45933975,37.75509617,,1000,
S,WICHITA STATE UNIVERSITY WEST,,,,1340271525,3801 N WALKER AVE,Maize,KS,67101,-97.4598787,37.75301197,,1000,1000
F,COMFORT CARE HOMES INC #147,,,,1340270881,147 SOUTH RIDGEWOOD,Wichita,KS,67218,-97.27279009,37.68515118,,1000,5000
S,CLEAVELAND TRADITIONAL MAGNET ELEMENTARY,77654,,2399039775,1340270617,3345 W 33rd S,Wichita,KS,67217,-97.3808128,37.63268783,,1000,
S,OATVILLE ELEM,77643,,2399039775,1340270383,4335 S Hoover,Wichita,KS,67215,-97.4078065,37.61560613,,1000,1000
S,GAMMON ELEM,77685,,2399039775,1340270134,3240 N Rushwood,Wichita,KS,67226,-97.25532835,37.74173674,,1000,1000
S,MULVANE GRADE SCHOOL,77470,,2399009491,1340270046,411 SE Louis Blvd,Mulvane,KS,67110,-97.23400122,37.47752132,,1000,1000
H,WICHITA OPTOMETRY P.A.,,20212095,,1340270032,415 SE LOUIS DR,MULVANE,KS,67110,-97.23436225,37.47880845,,1000,1000
F,COMFORT CARE HOMES INC #509,,,,1340269933,509 N TALLYRAND,Wichita,KS,67206,-97.25101792,37.69459002,,1000,5000
F,ARBOR HOME - SIEFKIN,,,,1340269829,1909 SIEFKIN,Wichita,KS,67208,-97.26545636,37.71826749,,1000,1000
F,ARBOR HOME - FARMSTEAD,,,,1340269822,1940 FARMSTEAD,Wichita,KS,67208,-97.26706752,37.71925159,,1000,1000
F,GODDARD POLICE DEPT,,,,1340269813,118 N Main St,Goddard,KS,67052,-97.57453427,37.65783135,,1000,1000
F,ENGINEERING LAB,,,,1340269538,4000 E 47th St S,Wichita,KS,67210,-97.28804562,37.61091766,,1000,1000
H,WALGREENS #5770,,19942221,,1340268905,3150 S SENECA ST,WICHITA,KS,67217,-97.31545136,37.60641221,,1000,1000
S,NORTHWEST HIGH,77615,,2399039775,1340268085,1220 N Tyler Rd,Wichita,KS,67212,-97.43912877,37.70579676,,1000,
H,TRADITIONS HEALTH,,171594,,1340267771,9415 EAST HARRY STREET,WICHITA,KS,67207,-97.22794551,37.66219788,,1000,1000
H,PROVIDENCE HOME HEALTH & HOSPICE LLC,,171600,,1340267771,9415 E HARRY ST,WICHITA,KS,67207,-97.22794551,37.66219788,,1000,1000
H,"PROVIDENCE HOME HEALTH AND HOSPICE, LLC",,178105,,1340267771,9415 E HARRY,WICHITA,KS,67207,-97.22794551,37.66219788,,1000,1000
H,OURKANSAS GUARDIAN,,178126,,1340267771,9415 E HARRY ST,WICHITA,KS,67207,-97.22794551,37.66219788,,1000,1000
H,LEVEL LLC,,1063085843,,1340267771,9415 E HARRY ST,WICHITA,KS,67207,-97.22794551,37.66219788,,1000,1000
H,HEALTHY GREEN NUTRITION LLC,,1194711994,,1340267771,9415 E HARRY ST,WICHITA,KS,67207,-97.22794551,37.66219788,,1000,1000
H,"MENTAL HEALTH ASSOCIATION OF SOUTH CENTRAL KANSAS, INC.",,1285835090,,1340267771,9415 E HARRY ST,WICHITA,KS,67207,-97.22794551,37.66219788,,1000,1000
H,WALGREENS #6113,,19938873,,1340267766,1625 S WEBB RD,WICHITA,KS,67207,-97.22690641,37.66413008,,1000,1000
H,"MONTOYA FAMILY PRACTICE, PA",,1154373082,,1340267760,8451 E PAWNEE ST,WICHITA,KS,67207,-97.24008482,37.65052262,,1000,1000
H,VITREO-RETINAL CONSULTANTS AND SURGEONS PA,,1396726964,,1340267617,530 N LORRAINE AVE,WICHITA,KS,67214,-97.30003482,37.69468103,,1000,1000
H,BRUCE BOYLE OD INC.,,20285775,,1340267170,2757 S SENECA ST,WICHITA,KS,67217,-97.35303412,37.64456102,,1000,5000
H,BRUCE BOYLE OD INC,,1033203757,,1340267170,2757 S SENECA ST,WICHITA,KS,67217,-97.35303412,37.64456102,,1000,5000
H,PHOENIX PHYSICAL THERAPY LLC,,1275868622,,1340267170,2757 S SENECA ST,WICHITA,KS,67217,-97.35303412,37.64456102,,1000,5000
H,TRAN MAJHER AND SHAW OD PA,,1083692735,,1340267060,2720 E 21ST N ST,WICHITA,KS,67214,-97.3048892,37.72307797,,1000,5000
H,KANSAS POST ACUTE MEDICAL SERVICES 1 PA,,1144565433,,1340266913,223 N BURR OAK RD,WICHITA,KS,67206,-97.24721254,37.6893775,,1000,1000
S,CRAVE BEAUTY ACADEMY,,,,1340266260,3804 W Douglas,Wichita,KS,67203,-97.38742356,37.684397,,1000,
S,CHRIST THE KING CATHOLIC SCHOOL,77588,,,1340266140,4501 W MAPLE ST,WICHITA,KS,67209,-97.39640146,37.67968153,,1000,
F,WICHITA POLICE DEPT,,,,1340266133,4600 W Kellogg Dr,Wichita,KS,67209,-97.39614043,37.6773323,,1000,1000
H,LENSCRAFTERS #417,,20139741,,1340266133,4600 W KELLOGG DR,WICHITA,KS,67209,-97.39614043,37.6773323,,1000,1000
H,EYE ASSOCIATES OF WICHITA PA,,1295116333,,1340266133,4600 W KELLOGG DR,WICHITA,KS,67209,-97.39614043,37.6773323,,1000,1000
F,POLICE DEPT PATROL WEST,,,,1340265810,661 N Elder St,Wichita,KS,67212,-97.40504032,37.69429809,,1000,
H,BRIGHAM PHYSICAL THERAPY LLC,,1043660152,,1340265788,1443 N RIDGE RD,WICHITA,KS,67212,-97.42659547,37.71027669,,1000,1000
H,"INFINITY HOME HEALTH, LLC",,178124,,1340265784,7230 W 13TH ST N,WICHITA,KS,67212,-97.42729054,37.70927159,,1000,1000
H,WEST WICHITA FAMILY OPTOMETRISTS,,1003183062,,1340265766,318 N MAIN,GODDARD,KS,67052,-97.57442326,37.65971754,,1000,1000
H,DESIGNS BY DARRIS INC,,20262567,,1340265640,1319 W 52ND ST S,WICHITA,KS,67217,-97.35665648,37.59877744,,1000,1000
H,FRESENIUS MEDICAL CARE DERBY,,172552,,1340265013,712 Klein Circle,DERBY,KS,67037,-97.23807862,37.54909757,,1000,1000
S,DERBY HIGH SCHOOL,77397,,2399010679,1340264988,920 N Rock Road,Derby,KS,67037,-97.24174599,37.55369193,,1000,
F,CHENEY VOLUNTEER FIRE DEPARTMENT,,,,1340264794,525 N Main ST,Cheney,KS,67025,-97.27620644,37.67123679,,1000,1000
C,ROBERT D. LOVE DOWNTOWN YMCA,,,,1340264741,402 N. Market St,Wichita,KS,67202,-97.33654547,37.69228189,See response to 1.3.1 Text Box in Initial Proposal - Volume 1,1000,1000
S,HARRY STREET ELEM,77603,,2399039775,1340264728,1605 S. Market,Wichita,KS,67211,-97.3338901,37.68680725,,1000,1000
S,ST MARGARET MARY CATHOLIC SCHOOL,77645,,2399003520,1340264587,2635 S PATTIE ST,WICHITA,KS,67216,-97.32257807,37.64483105,,1000,5000
S,MULVANE ELEM W D MUNSON,,,2399009491,1340264069,1007 Westview Dr,Mulvane,KS,67110,-97.2458783,37.48349791,,1000,
S,MULVANE MIDDLE SCHOOL,77471,,2399009491,1340264069,915 Westview Dr,Mulvane,KS,67110,-97.2458783,37.48349791,,1000,
H,FAITH HOSPICE,,171604,,1340263855,7309 E 21ST STREET NORTH,WICHITA,KS,67206,-97.25174599,37.72249781,,1000,1000
H,FAITH HOME HEALTH,,178119,,1340263855,7309 E 21TH ST N,WICHITA,KS,67206,-97.25174599,37.72249781,,1000,1000
